postDate,craigId,area,price,title,longitude,beds,latitude,link,numPic,updateDate,date,size,contentLen,reposts
"2015-11-14T13:10:15-0500,2015-11-14T13:10:15-0500,2015-11-28T19:00:34-0500",5315715914, (1820 George st),1000,Amazing 3 Bedroom in Luxury Building!!,-73.901254,,40.699435,/brk/roo/5315715914.html,9,"2015-11-14T13:10:15-0500,2015-11-14T13:10:15-0500,2015-11-28T19:00:34-0500",Nov 28,,16,0
"2015-11-28T16:37:17-0500,2015-11-28T16:37:17-0500,2015-11-28T16:41:25-0500",5335976700, (Brooklyn),1030,Sunny Room Available JAN 1st,,,,/brk/roo/5335976700.html,4,"2015-11-28T16:37:17-0500,2015-11-28T16:37:17-0500,2015-11-28T16:41:25-0500",Nov 28,,15,0
"2015-11-24T19:52:59-0500,2015-11-24T19:52:59-0500,2015-11-28T20:45:59-0500",5331141546,,,$1050 Room in East Williamsburg - Montrose L,-73.94067,,40.709044,/brk/roo/5331141546.html,5,"2015-11-24T19:52:59-0500,2015-11-24T19:52:59-0500,2015-11-28T20:45:59-0500",Nov 28,,9,0
"2015-11-16T18:04:55-0500,2015-11-16T18:04:55-0500,2015-11-28T18:52:13-0500",5319097540, (williamsburg bedstuy border),825,"Bedstuy williamsburg border cozy room for rent! artistic environment,",-73.945932,,40.693497,/brk/roo/5319097540.html,3,"2015-11-16T18:04:55-0500,2015-11-16T18:04:55-0500,2015-11-28T18:52:13-0500",Nov 28,,4,0
"2015-11-26T12:41:10-0500,2015-11-26T12:41:10-0500,2015-11-28T18:59:06-0500",5333121673," (bushwick,Dekalb L)",834,This won't last! Seeking 3 Cool mates for this epic New 5bd 4bath LOFT,-73.920075,,40.702259,/brk/roo/5333121673.html,9,"2015-11-26T12:41:10-0500,2015-11-26T12:41:10-0500,2015-11-28T18:59:06-0500",Nov 28,,34,0
"2015-11-26T12:34:34-0500,2015-11-26T12:34:34-0500,2015-11-28T18:59:16-0500",5333114952," (Bushwick,Dekalb L)",834,Need 3 mates for Huge 5bd 4bath Loft off the L,-73.920075,,40.702259,/brk/roo/5333114952.html,9,"2015-11-26T12:34:34-0500,2015-11-26T12:34:34-0500,2015-11-28T18:59:16-0500",Nov 28,,31,0
"2015-11-19T01:04:06-0500,2015-11-19T01:04:06-0500,2015-11-28T19:00:58-0500",5322567185, (bushwick),900,BRAND NEW RENOVATION WITH ROOF ACCESS,,,,/brk/roo/5322567185.html,14,"2015-11-19T01:04:06-0500,2015-11-19T01:04:06-0500,2015-11-28T19:00:58-0500",Nov 28,,21,0
"2015-11-28T18:58:40-0500,2015-11-28T18:58:40-0500",5336168080, (Bushwick),750,Beautiful Luxury Renovation in Bushwick,-73.907961,,40.682374,/brk/roo/5336168080.html,17,"2015-11-28T18:58:40-0500,2015-11-28T18:58:40-0500",Nov 28,,19,0
"2015-11-10T13:41:02-0500,2015-11-10T13:41:02-0500,2015-11-28T18:58:28-0500",5309466491, (Fort Greene),1200,1 BR in Sweet 3BR,-73.971548,3,40.693134,/brk/roo/5309466491.html,8,"2015-11-10T13:41:02-0500,2015-11-10T13:41:02-0500,2015-11-28T18:58:28-0500",Nov 28,,13,0
"2015-11-24T06:37:25-0500,2015-11-24T06:37:25-0500,2015-11-28T18:02:39-0500",5330018110,,925,Your New Sanctuary ! Brand New 3 bed 1.5 bath for Rent!!,-73.8736,,40.6762,/brk/roo/5330018110.html,11,"2015-11-24T06:37:25-0500,2015-11-24T06:37:25-0500,2015-11-28T18:02:39-0500",Nov 28,,16,0
"2015-11-28T16:10:08-0500,2015-11-28T16:10:08-0500",5335933927, (437 Throop Ave),800,Is there better apartments? Not much!! You must see this New Renovated,-73.941916,,40.687881,/brk/roo/5335933927.html,11,"2015-11-28T16:10:08-0500,2015-11-28T16:10:08-0500",Nov 28,,12,0
"2015-11-28T18:58:14-0500,2015-11-28T18:58:14-0500",5336167615, (Crown Heights/ Prospect Heights),1200,Rooms available in Prospect Heights area in a 4 Bedroom 3 Full Bath,-73.952065,,40.67517,/brk/roo/5336167615.html,24,"2015-11-28T18:58:14-0500,2015-11-28T18:58:14-0500",Nov 28,,26,0
"2015-11-28T16:19:43-0500,2015-11-28T16:19:43-0500",5335949338, (Williamsburg),1700,Williamsburg. Room for Rent,,,,/brk/roo/5335949338.html,2,"2015-11-28T16:19:43-0500,2015-11-28T16:19:43-0500",Nov 28,,5,0
"2015-11-28T16:23:39-0500,2015-11-28T16:23:39-0500",5335955561, (Williamsburg),1600,Williamsburg. Room for Rent,,,,/brk/roo/5335955561.html,5,"2015-11-28T16:23:39-0500,2015-11-28T16:23:39-0500",Nov 28,,5,0
"2015-10-30T15:31:53-0400,2015-10-30T15:31:53-0400,2015-11-28T16:28:55-0500",5292865370,,800,ROOM FOR RENT IN EAST FLATBUSH,,,,/brk/roo/5292865370.html,3,"2015-10-30T15:31:53-0400,2015-10-30T15:31:53-0400,2015-11-28T16:28:55-0500",Nov 28,,1,0
"2015-11-25T23:00:12-0500,2015-11-25T23:00:12-0500,2015-11-28T16:29:38-0500",5332681545, (Bed Stuy @ Lewis Ave),850,HUGE ROOM w/ Private Entrance ALL Utilities Included...4-6 Months,-73.936229,350,40.68893,/brk/roo/5332681545.html,7,"2015-11-25T23:00:12-0500,2015-11-25T23:00:12-0500,2015-11-28T16:29:38-0500",Nov 28,,31,0
"2015-11-28T17:58:27-0500,2015-11-28T17:58:27-0500",5336092575, (sheepsheadbay/gravesend/midwood),700,Short Term! MED STUDENTS/INTERNS! 1 Block to Q Train Convenient to NYC,-73.958158,,40.602359,/brk/roo/5336092575.html,7,"2015-11-28T17:58:27-0500,2015-11-28T17:58:27-0500",Nov 28,,25,0
"2015-10-30T15:31:30-0400,2015-10-30T15:31:30-0400,2015-11-28T16:28:59-0500",5292864687,,850,LGE ROOM FOR RENT IN PROSPECT HEIGHTS,-73.9644,,40.679,/brk/roo/5292864687.html,2,"2015-10-30T15:31:30-0400,2015-10-30T15:31:30-0400,2015-11-28T16:28:59-0500",Nov 28,,5,0
"2015-11-16T04:41:27-0500,2015-11-16T04:41:27-0500,2015-11-29T00:22:59-0500",5317975862,,800,Studio/room for rent only 800!!!,-73.9475,,40.6011,/brk/roo/5317975862.html,5,"2015-11-16T04:41:27-0500,2015-11-16T04:41:27-0500,2015-11-29T00:22:59-0500",Nov 29,,3,0
"2015-11-28T17:25:14-0500,2015-11-28T17:25:14-0500",5336047594, (WILLIAMSBURG-BEDSTUY),950,( BRAND NEW ROOM FOR RENT ),-73.9436,,40.7012,/brk/roo/5336047594.html,4,"2015-11-28T17:25:14-0500,2015-11-28T17:25:14-0500",Nov 28,,4,0
"2015-11-29T00:12:19-0500,2015-11-29T00:12:19-0500",5336450232, (BED-STUY),800,this place is just stunning // three rooms left // move in today,-73.908156,,40.675674,/brk/roo/5336450232.html,12,"2015-11-29T00:12:19-0500,2015-11-29T00:12:19-0500",Nov 29,,6,0
"2015-11-29T00:15:01-0500,2015-11-29T00:15:01-0500",5336451947, (BED-STUY),775,all utilities included // come and see today // ready to move?,-73.908029,,40.679866,/brk/roo/5336451947.html,12,"2015-11-29T00:15:01-0500,2015-11-29T00:15:01-0500",Nov 29,,5,0
"2015-11-28T23:27:15-0500,2015-11-28T23:27:15-0500",5336420036, (Crown Heights/Bedford Stuyvesant),750,Share With Other Cool Single Professionals,-73.9367,,40.67,/brk/roo/5336420036.html,0,"2015-11-28T23:27:15-0500,2015-11-28T23:27:15-0500",Nov 28,,3,0
"2015-11-18T19:28:51-0500,2015-11-18T19:28:51-0500,2015-11-28T23:27:42-0500",5322307110, (Bushwick),900,3 Story Townhouse - Intimate & Immaculate !,-73.9274,,40.6907,/brk/roo/5322307110.html,16,"2015-11-18T19:28:51-0500,2015-11-18T19:28:51-0500,2015-11-28T23:27:42-0500",Nov 28,,9,0
"2015-11-18T11:49:06-0500,2015-11-18T11:49:06-0500,2015-11-28T23:28:09-0500",5321515692, (Bushwick),900,Fantastic Apartment Share Nearby Northern Lights Records,-73.9274,,40.6907,/brk/roo/5321515692.html,22,"2015-11-18T11:49:06-0500,2015-11-18T11:49:06-0500,2015-11-28T23:28:09-0500",Nov 28,,12,0
"2015-11-24T20:39:42-0500,2015-11-24T20:39:42-0500,2015-11-28T23:28:28-0500",5331192294, (Bushwick),899,1 room for 900 ready 12/1,-73.9274,,40.6907,/brk/roo/5331192294.html,22,"2015-11-24T20:39:42-0500,2015-11-24T20:39:42-0500,2015-11-28T23:28:28-0500",Nov 28,,18,0
"2015-11-16T15:16:41-0500,2015-11-16T15:16:41-0500,2015-11-28T23:30:32-0500",5318808473, (Crown Heights),999,- $1275 - 4 Bedroom / 3 Bathroom Triplex with Private Roof Deck,-73.9496,,40.6794,/brk/roo/5318808473.html,19,"2015-11-16T15:16:41-0500,2015-11-16T15:16:41-0500,2015-11-28T23:30:32-0500",Nov 28,,28,0
"2015-11-18T11:44:45-0500,2015-11-18T11:44:45-0500,2015-11-28T23:25:47-0500",5321507051, (Bushwick),895,Apartment Share in Hart Street on Bushwick Avenue,-73.9274,,40.6907,/brk/roo/5321507051.html,17,"2015-11-18T11:44:45-0500,2015-11-18T11:44:45-0500,2015-11-28T23:25:47-0500",Nov 28,,12,0
"2015-11-22T10:40:46-0500,2015-11-22T10:40:46-0500,2015-11-28T23:26:07-0500",5327258269, (Bushwick),1050,The Bushwick Townhouse Redone - Apartment seeking Roomies,-73.9274,,40.6907,/brk/roo/5327258269.html,19,"2015-11-22T10:40:46-0500,2015-11-22T10:40:46-0500,2015-11-28T23:26:07-0500",Nov 28,,12,0
"2015-11-19T18:03:11-0500,2015-11-19T18:03:11-0500,2015-11-28T22:57:49-0500",5323556088, (114 troutman st),1500,Spacious Room in Awesome Brand New Bushwick Artsy Building,-73.929802,127,40.699507,/brk/roo/5323556088.html,10,"2015-11-19T18:03:11-0500,2015-11-19T18:03:11-0500,2015-11-28T22:57:49-0500",Nov 28,,27,0
"2015-11-19T18:14:35-0500,2015-11-19T18:14:35-0500,2015-11-28T22:58:08-0500",5323570565, (114 Troutman St),1500,NO CREDIT CHECK! BIG ROOM IN ARTSY MODERN BUILDING,-73.929802,127,40.699507,/brk/roo/5323570565.html,10,"2015-11-19T18:14:35-0500,2015-11-19T18:14:35-0500,2015-11-28T22:58:08-0500",Nov 28,,27,0
"2015-11-28T23:02:32-0500,2015-11-28T23:02:32-0500,2015-11-29T00:04:47-0500",5336402142, (Bushwick),975,"QUIET, SPACIOUS BUSHWICK OASIS",-73.908969,,40.687323,/brk/roo/5336402142.html,7,"2015-11-28T23:02:32-0500,2015-11-28T23:02:32-0500,2015-11-29T00:04:47-0500",Nov 28,,12,0
"2015-11-16T14:59:10-0500,2015-11-16T14:59:10-0500,2015-11-28T23:19:11-0500",5318774772, (BUSHWICK/EAST WILLIAMSBURG),850,BRAND NEW LARGE ROOM*****GREAT SIZE & LOCATION* LAUNDRY & MORE!!,-73.913946,,40.689409,/brk/roo/5318774772.html,7,"2015-11-16T14:59:10-0500,2015-11-16T14:59:10-0500,2015-11-28T23:19:11-0500",Nov 28,,21,0
"2015-11-01T12:14:27-0500,2015-11-01T12:14:27-0500,2015-11-28T22:21:22-0500",5295286548, (Downtown),200,Large Temp Living Room Space Avail $200. p/w,-73.982019,,40.681289,/brk/roo/5295286548.html,5,"2015-11-01T12:14:27-0500,2015-11-01T12:14:27-0500,2015-11-28T22:21:22-0500",Nov 28,,11,0
"2015-11-28T22:37:08-0500,2015-11-28T22:37:08-0500,2015-11-28T22:37:09-0500",5336382241, (Bensonhurst),700,Marvelous Room Available Dec.1st Private in 2 BR apt.,,,,/brk/roo/5336382241.html,0,"2015-11-28T22:37:08-0500,2015-11-28T22:37:08-0500,2015-11-28T22:37:09-0500",Nov 28,,24,0
"2015-11-28T22:25:34-0500,2015-11-28T22:25:34-0500",5336373022, (Bushwick),799,"SPECTACULAR MODERN APARTMENT! WASHER/DRYER, CENTRAL A/C! NO FEE",-73.924439,,40.693041,/brk/roo/5336373022.html,10,"2015-11-28T22:25:34-0500,2015-11-28T22:25:34-0500",Nov 28,,31,0
"2015-11-28T22:25:16-0500,2015-11-28T22:25:16-0500,2015-11-28T22:27:39-0500",5336372767, (East Williamsburg),1900,Huge Room in Beautiful Loft avail DEC,,1600,,/brk/roo/5336372767.html,0,"2015-11-28T22:25:16-0500,2015-11-28T22:25:16-0500,2015-11-28T22:27:39-0500",Nov 28,,2,0
"2015-11-06T13:51:40-0500,2015-11-06T13:51:40-0500,2015-11-28T22:21:31-0500",5303445532, (Bushwick),1000,Amazing Space/Ready ASAP 4br MODERN,,,,/brk/roo/5303445532.html,14,"2015-11-06T13:51:40-0500,2015-11-06T13:51:40-0500,2015-11-28T22:21:31-0500",Nov 28,,10,0
"2015-11-24T13:56:53-0500,2015-11-24T13:56:53-0500,2015-11-28T21:50:22-0500",5330609167, (Williamsburg),1400,Dec 1 Bedroom with big windows and large closet!,,,,/brk/roo/5330609167.html,6,"2015-11-24T13:56:53-0500,2015-11-24T13:56:53-0500,2015-11-28T21:50:22-0500",Nov 28,,20,0
"2015-11-23T13:37:16-0500,2015-11-23T13:37:16-0500,2015-11-28T21:54:31-0500",5329011787, (Bushwick),950,Roomate for 4 bedroom with a sick ass dog and backyard!!!,-73.918572,,40.701404,/brk/roo/5329011787.html,5,"2015-11-23T13:37:16-0500,2015-11-23T13:37:16-0500,2015-11-28T21:54:31-0500",Nov 28,,18,0
"2015-11-28T22:10:08-0500,2015-11-28T22:10:08-0500",5336360287, (Cypress Hills Brooklyn),700,Comfortable Room College Students,,210,,/brk/roo/5336360287.html,5,"2015-11-28T22:10:08-0500,2015-11-28T22:10:08-0500",Nov 28,,7,0
"2015-11-13T13:12:05-0500,2015-11-13T13:12:05-0500,2015-11-28T21:38:14-0500",5314198921, (OCEAN PARKWAY),650,Furnished-Room,,,,/brk/roo/5314198921.html,3,"2015-11-13T13:12:05-0500,2015-11-13T13:12:05-0500,2015-11-28T21:38:14-0500",Nov 28,,9,0
"2015-11-26T16:21:27-0500,2015-11-26T16:21:27-0500,2015-11-28T21:38:51-0500",5333320160, (brooklyn),500,641 east 77 street,-73.9349,,40.6505,/brk/roo/5333320160.html,5,"2015-11-26T16:21:27-0500,2015-11-26T16:21:27-0500,2015-11-28T21:38:51-0500",Nov 28,,1,0
"2015-11-18T15:04:20-0500,2015-11-18T15:04:20-0500,2015-11-28T21:39:08-0500",5321891504, (Bedstuy),1000,room for rent,-73.9743,0,40.5979,/brk/roo/5321891504.html,0,"2015-11-18T15:04:20-0500,2015-11-18T15:04:20-0500,2015-11-28T21:39:08-0500",Nov 28,,1,0
"2015-11-28T21:15:42-0500,2015-11-28T21:15:42-0500",5336311430, (Crown Heights),750,Need last minute housing for Dec. 1st? ðŸ‘€ ðŸ‘€ ðŸ‘€,-73.950334,,40.671638,/brk/roo/5336311430.html,9,"2015-11-28T21:15:42-0500,2015-11-28T21:15:42-0500",Nov 28,,17,0
"2015-11-28T21:12:16-0500,2015-11-28T21:12:16-0500",5336308214, (310 Tompkins ave),875,Beautiful New 4BR/2BA private Roof access steps to Bedford G train,-73.944683,,40.687218,/brk/roo/5336308214.html,15,"2015-11-28T21:12:16-0500,2015-11-28T21:12:16-0500",Nov 28,,45,0
"2015-11-25T09:30:03-0500,2015-11-25T09:30:03-0500,2015-11-28T20:55:51-0500",5331635479, (BEDSTUY (A & C TRAINS)),1200,"ROOM AVAIL IN LOVELY DUPLEX WITH W/D, DISHWASHER, ROOFDECK",-73.957386,,40.681761,/brk/roo/5331635479.html,14,"2015-11-25T09:30:03-0500,2015-11-25T09:30:03-0500,2015-11-28T20:55:51-0500",Nov 28,,17,0
"2015-11-28T20:51:39-0500,2015-11-28T20:51:39-0500",5336288332,,,$880 Spacious Gorgeous Room - near all - utilities and wifi,-74.0133,,40.6412,/brk/roo/5336288332.html,0,"2015-11-28T20:51:39-0500,2015-11-28T20:51:39-0500",Nov 28,,3,0
"2015-11-28T21:43:38-0500,2015-11-28T21:43:38-0500",5336337039, (Crown Heights),1500,Great New Reno/Gut Duplex Share in Crown Heights,,1200,,/brk/roo/5336337039.html,4,"2015-11-28T21:43:38-0500,2015-11-28T21:43:38-0500",Nov 28,,5,0
"2015-11-28T21:06:11-0500,2015-11-28T21:06:11-0500,2015-11-28T22:17:19-0500",5336302394, (Bed-Stuy),1200,"Spacious, Beautiful Room for 5-Month Sublease",-73.9496,148,40.6794,/brk/roo/5336302394.html,0,"2015-11-28T21:06:11-0500,2015-11-28T21:06:11-0500,2015-11-28T22:17:19-0500",Nov 28,,7,0
"2015-11-28T20:58:32-0500,2015-11-28T20:58:32-0500",5336295122, (Bushwick),1039,Amazing elevator building seeking roomies in Bushwick off JMZ :),-73.933828,,40.696184,/brk/roo/5336295122.html,23,"2015-11-28T20:58:32-0500,2015-11-28T20:58:32-0500",Nov 28,,11,0
"2015-11-28T21:01:14-0500,2015-11-28T21:01:14-0500",5336297702, (bushwick),1100,PRIVATE BACKYARD! LAUNDRY IN BUILDING! CENTRAL A/C!,-73.924185,,40.692901,/brk/roo/5336297702.html,11,"2015-11-28T21:01:14-0500,2015-11-28T21:01:14-0500",Nov 28,,31,0
"2015-11-28T21:15:10-0500,2015-11-28T21:15:10-0500",5336310944, (East Brooklyn),595,3&4 Trains**Brand New & Modern**Big Rooms**Close to Subway,,,,/brk/roo/5336310944.html,4,"2015-11-28T21:15:10-0500,2015-11-28T21:15:10-0500",Nov 28,,11,0
"2015-11-28T21:14:57-0500,2015-11-28T21:14:57-0500",5336310740, (310 Tompkins ave),875,Beautiful New 4BR/2BA private Roof access steps to Bedford G train,-73.944683,,40.687218,/brk/roo/5336310740.html,15,"2015-11-28T21:14:57-0500,2015-11-28T21:14:57-0500",Nov 28,,45,0
"2015-11-24T18:35:19-0500,2015-11-24T18:35:19-0500,2015-11-28T21:08:44-0500",5331047653, (Brooklyn),650,"Room for rent near Kingsbrook, Interfaith, Wycoff and Lutheran!!!",,,,/brk/roo/5331047653.html,0,"2015-11-24T18:35:19-0500,2015-11-24T18:35:19-0500,2015-11-28T21:08:44-0500",Nov 28,,18,0
"2015-11-28T21:14:34-0500,2015-11-28T21:14:34-0500",5336310400, (Flatbush / NO FEE),650,Nostrand Ave**30 Seconds to the Subway**Exposed Brick**Modern Bathroom,-73.94895,,40.645003,/brk/roo/5336310400.html,10,"2015-11-28T21:14:34-0500,2015-11-28T21:14:34-0500",Nov 28,,12,0
"2015-11-28T21:15:59-0500,2015-11-28T21:15:59-0500",5336311692, (Bushwick),800,L & J Trains**Hardwood Flrs**Expd Brick**2 Full Baths**SS Appliances,-73.907025,,40.690498,/brk/roo/5336311692.html,10,"2015-11-28T21:15:59-0500,2015-11-28T21:15:59-0500",Nov 28,,8,0
"2015-11-15T13:57:12-0500,2015-11-15T13:57:12-0500,2015-11-28T21:23:59-0500",5317153500, (Bushwick),1100,Great Space/ ALL NEW/READY ASAP,,,,/brk/roo/5317153500.html,24,"2015-11-15T13:57:12-0500,2015-11-15T13:57:12-0500,2015-11-28T21:23:59-0500",Nov 28,,9,0
"2015-11-28T21:11:36-0500,2015-11-28T21:11:36-0500",5336307599, (310 Tompkins ave),875,Beautiful New 4BR/2BA private Roof access steps to Bedford G train,-73.944683,,40.687218,/brk/roo/5336307599.html,15,"2015-11-28T21:11:36-0500,2015-11-28T21:11:36-0500",Nov 28,,45,0
"2015-11-28T21:16:20-0500,2015-11-28T21:16:20-0500",5336312034, (310 Tompkins ave),875,Beautiful New 4BR/2BA private Roof access steps to Bedford G train,-73.944683,,40.687218,/brk/roo/5336312034.html,15,"2015-11-28T21:16:20-0500,2015-11-28T21:16:20-0500",Nov 28,,45,0
"2015-11-09T18:46:55-0500,2015-11-09T18:46:55-0500,2015-11-28T21:30:51-0500",5308375669, (Bushwick),850,Amazing Space PASS BY SOON,,,,/brk/roo/5308375669.html,13,"2015-11-09T18:46:55-0500,2015-11-09T18:46:55-0500,2015-11-28T21:30:51-0500",Nov 28,,8,0
"2015-11-26T12:02:09-0500,2015-11-26T12:02:09-0500,2015-11-28T21:39:23-0500",5333082038, (BUSHWICK),750,LADIES ONLY - HUGE 4 BR APT IN BUSHWICK - 1 LEFT TO SHARE!!,-73.909171,1300,40.688758,/brk/roo/5333082038.html,6,"2015-11-26T12:02:09-0500,2015-11-26T12:02:09-0500,2015-11-28T21:39:23-0500",Nov 28,,29,0
"2015-11-25T11:17:18-0500,2015-11-25T11:17:18-0500,2015-11-28T21:38:19-0500",5331793936, (Bushwick/Bedstuy),2200,L Train Morgan ave Elevator,-73.941529,,40.694598,/brk/roo/5331793936.html,0,"2015-11-25T11:17:18-0500,2015-11-25T11:17:18-0500,2015-11-28T21:38:19-0500",Nov 28,,1,0
"2015-11-28T21:47:41-0500,2015-11-28T21:47:41-0500",5336340646, (Brooklyn),200,Room with A View (East Flatbush),,100,,/brk/roo/5336340646.html,0,"2015-11-28T21:47:41-0500,2015-11-28T21:47:41-0500",Nov 28,,1,0
"2015-11-28T16:37:20-0500,2015-11-28T16:37:20-0500",5335976768,,,Great room for roommate--$625,-73.996,,40.6336,/brk/roo/5335976768.html,5,"2015-11-28T16:37:20-0500,2015-11-28T16:37:20-0500",Nov 28,,3,0
"2015-11-15T12:57:56-0500,2015-11-15T12:57:56-0500,2015-11-28T16:32:34-0500",5317064453,,,å¸ƒç¢Œå€« 13å¤§é“ 63è¡— å¤§å–®æˆ¿,-73.996,,40.6336,/brk/roo/5317064453.html,0,"2015-11-15T12:57:56-0500,2015-11-15T12:57:56-0500,2015-11-28T16:32:34-0500",Nov 28,,3,0
"2015-11-28T16:24:32-0500,2015-11-28T16:24:32-0500",5335956872, (Bushwick),800,Room for rent in our killer 5 bdrm 2 story flat,-73.916016,,40.689831,/brk/roo/5335956872.html,7,"2015-11-28T16:24:32-0500,2015-11-28T16:24:32-0500",Nov 28,,16,0
"2015-11-28T16:13:02-0500,2015-11-28T16:13:02-0500",5335938678, (Crown Heights),875,Furnished Rooms Available,,,,/brk/roo/5335938678.html,0,"2015-11-28T16:13:02-0500,2015-11-28T16:13:02-0500",Nov 28,,6,0
"2015-11-15T13:09:28-0500,2015-11-15T13:09:28-0500,2015-11-28T16:34:07-0500",5317081592,,,"$600å¥½åŒº,å…¨åŒ…Nice Room for Rent $600(dyker heihgts br",-73.996,,40.6336,/brk/roo/5317081592.html,0,"2015-11-15T13:09:28-0500,2015-11-15T13:09:28-0500,2015-11-28T16:34:07-0500",Nov 28,,3,0
"2015-11-26T12:13:28-0500,2015-11-26T12:13:28-0500,2015-11-28T14:27:08-0500",5333093615, (25mins to Union Square via 4 Train),,I am willing to be fl FREE TODAY AT 530PM UNTIL TONIGHT,,,,/brk/roo/5333093615.html,0,"2015-11-26T12:13:28-0500,2015-11-26T12:13:28-0500,2015-11-28T14:27:08-0500",Nov 28,,35,0
"2015-11-28T21:35:20-0500,2015-11-28T21:35:20-0500",5336329440, (BEDSTUY),640,BRAND NEW LARGE ROOM***2BATHS*****LAUNDRY & MORE* A MUST SEE,-73.911374,,40.68098,/brk/roo/5336329440.html,7,"2015-11-28T21:35:20-0500,2015-11-28T21:35:20-0500",Nov 28,,20,0
"2015-11-24T22:57:18-0500,2015-11-24T22:57:18-0500,2015-11-28T21:49:02-0500",5331318586, (Greenpoint),1299,15 - 20 minutes commute to Downtown Manhattan,,,,/brk/roo/5331318586.html,7,"2015-11-24T22:57:18-0500,2015-11-24T22:57:18-0500,2015-11-28T21:49:02-0500",Nov 28,,18,0
"2015-11-26T12:14:18-0500,2015-11-26T12:14:18-0500,2015-11-28T14:27:16-0500",5333094445, (25mins to Union Square via 4 Train),,I am willing to be fl FREE TODAY AT 530PM UNTIL TONIGHT,,,,/brk/roo/5333094445.html,0,"2015-11-26T12:14:18-0500,2015-11-26T12:14:18-0500,2015-11-28T14:27:16-0500",Nov 28,,35,0
"2015-11-28T21:54:11-0500,2015-11-28T21:54:11-0500,2015-11-28T21:55:54-0500",5336346587, (Canarsie),470,furnished room available,-73.9028,,40.6407,/brk/roo/5336346587.html,0,"2015-11-28T21:54:11-0500,2015-11-28T21:54:11-0500,2015-11-28T21:55:54-0500",Nov 28,,11,0
"2015-11-22T22:32:42-0500,2015-11-22T22:32:42-0500,2015-11-28T21:49:18-0500",5328207219, (Bushwick),850,Fantastic Apartment Share Nearby Northern Lights Records,-73.9274,,40.6907,/brk/roo/5328207219.html,11,"2015-11-22T22:32:42-0500,2015-11-22T22:32:42-0500,2015-11-28T21:49:18-0500",Nov 28,,12,0
"2015-11-24T22:24:34-0500,2015-11-24T22:24:34-0500,2015-11-28T21:49:28-0500",5331291532, (Bushwick),899,1 room left -900 - 12/1,-73.9274,,40.6907,/brk/roo/5331291532.html,22,"2015-11-24T22:24:34-0500,2015-11-24T22:24:34-0500,2015-11-28T21:49:28-0500",Nov 28,,18,0
"2015-11-24T22:05:51-0500,2015-11-24T22:05:51-0500,2015-11-28T21:49:41-0500",5331275538, (Bushwick),899,The Elegant Townhouse on Bushwick Avenue,-73.9274,,40.6907,/brk/roo/5331275538.html,19,"2015-11-24T22:05:51-0500,2015-11-24T22:05:51-0500,2015-11-28T21:49:41-0500",Nov 28,,18,0
"2015-11-24T22:05:18-0500,2015-11-24T22:05:18-0500,2015-11-28T21:50:13-0500",5331275063, (Bushwick),898,"Lots of Interest, Dec.1 - Ready - Brand New",-73.9274,,40.6907,/brk/roo/5331275063.html,21,"2015-11-24T22:05:18-0500,2015-11-24T22:05:18-0500,2015-11-28T21:50:13-0500",Nov 28,,18,0
"2015-11-20T20:51:55-0500,2015-11-20T20:51:55-0500,2015-11-28T16:37:08-0500",5325319750, (Weirfield),775,"This is the one, Amazing >"">"" Roommate & Amazing Place",-73.914642,,40.687507,/brk/roo/5325319750.html,5,"2015-11-20T20:51:55-0500,2015-11-20T20:51:55-0500,2015-11-28T16:37:08-0500",Nov 28,,62,0
"2015-11-23T16:25:45-0500,2015-11-23T16:25:45-0500,2015-11-28T21:50:19-0500",5329322418, (Williamsburg),1450,Dec 1 Bedroom with big windows and large closet!,-73.946528,,40.707141,/brk/roo/5329322418.html,8,"2015-11-23T16:25:45-0500,2015-11-23T16:25:45-0500,2015-11-28T21:50:19-0500",Nov 28,,20,0
"2015-11-28T16:34:29-0500,2015-11-28T16:34:29-0500",5335972384, (Bushwick),800,L & J Trains**Hardwood Flrs**Expd Brick**2 Full Baths**SS Appliances,-73.907025,,40.690498,/brk/roo/5335972384.html,10,"2015-11-28T16:34:29-0500,2015-11-28T16:34:29-0500",Nov 28,,8,0
"2015-11-28T16:40:06-0500,2015-11-28T16:40:06-0500",5335981027, (Bedstuy),640,Brand New Sunny And Spacious Room For Rent,,,,/brk/roo/5335981027.html,16,"2015-11-28T16:40:06-0500,2015-11-28T16:40:06-0500",Nov 28,,12,0
"2015-11-28T16:36:04-0500,2015-11-28T16:36:04-0500",5335974842, (Bushwick),850,Bushwick Townhouse Reopens,-73.9436,,40.7012,/brk/roo/5335974842.html,18,"2015-11-28T16:36:04-0500,2015-11-28T16:36:04-0500",Nov 28,,34,0
"2015-11-25T14:14:48-0500,2015-11-25T14:14:48-0500,2015-11-28T16:40:23-0500",5332091677, (Williamsburg/ Clinton Hill),65,SHARED BK Penthouse $65-DAILY- *NOW*,-73.957343,1,40.687505,/brk/roo/5332091677.html,10,"2015-11-25T14:14:48-0500,2015-11-25T14:14:48-0500,2015-11-28T16:40:23-0500",Nov 28,700,8,0
"2015-11-20T21:01:44-0500,2015-11-20T21:01:44-0500,2015-11-28T16:42:34-0500",5325330013, (Bushwick),777,LAUNDRY **+ ** INCREDIBLE VIEWS + A/C + ROOF TOP,-73.914642,,40.687507,/brk/roo/5325330013.html,4,"2015-11-20T21:01:44-0500,2015-11-20T21:01:44-0500,2015-11-28T16:42:34-0500",Nov 28,,63,0
"2015-11-24T22:25:14-0500,2015-11-24T22:25:14-0500,2015-11-28T16:42:42-0500",5331292108, (Ditmas Park),800,Spacious Room in Ditmas Park/Flatbush,-73.953933,,40.63332,/brk/roo/5331292108.html,4,"2015-11-24T22:25:14-0500,2015-11-24T22:25:14-0500,2015-11-28T16:42:42-0500",Nov 28,,27,0
"2015-11-28T16:40:43-0500,2015-11-28T16:40:43-0500",5335981982, (Bedstuy),640,Brand New Sunny And Spacious Room For Rent,,,,/brk/roo/5335981982.html,16,"2015-11-28T16:40:43-0500,2015-11-28T16:40:43-0500",Nov 28,,12,0
"2015-11-28T13:25:27-0500,2015-11-28T13:25:27-0500",5335647562, (Flatbush),500,Small room for someone that doesn't need much space-12/1,-73.949318,,40.649355,/brk/roo/5335647562.html,8,"2015-11-28T13:25:27-0500,2015-11-28T13:25:27-0500",Nov 28,,13,0
"2015-11-24T21:56:33-0500,2015-11-24T21:56:33-0500,2015-11-28T21:50:21-0500",5331267289, (Bushwick),899,HUGE rooms // HUGE apartments // HUGE building,-73.9274,,40.6907,/brk/roo/5331267289.html,20,"2015-11-24T21:56:33-0500,2015-11-24T21:56:33-0500,2015-11-28T21:50:21-0500",Nov 28,,18,0
"2015-11-28T16:37:32-0500,2015-11-28T16:37:32-0500",5335977095, (Clinton Hill),975,Clinton Hill*~Close to Great Restaurants**Bars**Cafes**Coffee Shops,-73.957043,,40.683225,/brk/roo/5335977095.html,8,"2015-11-28T16:37:32-0500,2015-11-28T16:37:32-0500",Nov 28,,12,0
"2015-11-28T14:34:26-0500,2015-11-28T14:34:26-0500",5335772820, (Bushwick@Dekalb L/Knickerbocker M),850,Last Roommate Needed ASAP!!! | Just 1 Block From DEKALB LLLLLL,-73.919749,,40.701431,/brk/roo/5335772820.html,8,"2015-11-28T14:34:26-0500,2015-11-28T14:34:26-0500",Nov 28,,34,0
"2015-11-20T18:56:12-0500,2015-11-20T18:56:12-0500,2015-11-28T14:30:06-0500",5325184652, (Crown Heights-Rockaway C/B-Way Junction),675,Sunny br avail in brand new 3br_mid20s roomies and YOU?,-73.915306,,40.67577,/brk/roo/5325184652.html,10,"2015-11-20T18:56:12-0500,2015-11-20T18:56:12-0500,2015-11-28T14:30:06-0500",Nov 28,,28,0
"2015-11-28T14:35:04-0500,2015-11-28T14:35:04-0500",5335773921, (Bushwick@Dekalb L/Knickerbocker M),850,Last Roommate Needed ASAP!!! | Just 1 Block From DEKALB LLLLLL,-73.919749,,40.701431,/brk/roo/5335773921.html,8,"2015-11-28T14:35:04-0500,2015-11-28T14:35:04-0500",Nov 28,,34,0
"2015-11-23T16:35:12-0500,2015-11-23T16:35:12-0500,2015-11-28T14:30:41-0500",5329338634,,1600,ðŸŒ â™»ðŸŒ MOVE IN BY THIS SUNDAY! RENTALS READY TO SEE NOW!,,,,/brk/roo/5329338634.html,0,"2015-11-23T16:35:12-0500,2015-11-23T16:35:12-0500,2015-11-28T14:30:41-0500",Nov 28,,12,0
"2015-11-28T14:29:41-0500,2015-11-28T14:29:41-0500",5335764389, (BUSHWICK),1100,Massive Bedroom Available Now!,-73.929362,,40.696892,/brk/roo/5335764389.html,5,"2015-11-28T14:29:41-0500,2015-11-28T14:29:41-0500",Nov 28,,11,0
"2015-11-26T12:12:18-0500,2015-11-26T12:12:18-0500,2015-11-28T14:27:24-0500",5333092439, (25mins to Union Square via 4 Train),,I am willing to be fl FREE TODAY AT 530PM UNTIL TONIGHT,,,,/brk/roo/5333092439.html,0,"2015-11-26T12:12:18-0500,2015-11-26T12:12:18-0500,2015-11-28T14:27:24-0500",Nov 28,,35,0
"2015-11-14T13:04:28-0500,2015-11-14T13:04:28-0500,2015-11-28T19:00:42-0500",5315705027, (1820 George st),1000,Amazing 3 Bedroom in Luxury Building!!,-73.901254,,40.699435,/brk/roo/5315705027.html,9,"2015-11-14T13:04:28-0500,2015-11-14T13:04:28-0500,2015-11-28T19:00:42-0500",Nov 28,,16,0
"2015-11-14T13:05:07-0500,2015-11-14T13:05:07-0500,2015-11-28T19:00:49-0500",5315706209, (1820 George st),1000,Amazing 3 Bedroom in Luxury Building!!,-73.901254,,40.699435,/brk/roo/5315706209.html,9,"2015-11-14T13:05:07-0500,2015-11-14T13:05:07-0500,2015-11-28T19:00:49-0500",Nov 28,,16,0
"2015-11-14T12:11:55-0500,2015-11-14T12:11:55-0500,2015-11-28T19:00:56-0500",5315609158, (22 granite st),800,4 Bedroom/2 bathrooms apt available in new Luxury Building!!!,-73.907961,,40.682374,/brk/roo/5315609158.html,10,"2015-11-14T12:11:55-0500,2015-11-14T12:11:55-0500,2015-11-28T19:00:56-0500",Nov 28,,19,0
"2015-11-14T11:56:31-0500,2015-11-14T11:56:31-0500,2015-11-28T19:01:05-0500",5315581192, (1820 George st),1000,Amazing three bedroom apt in Beautiful Luxury Building!!,-73.901254,,40.699435,/brk/roo/5315581192.html,8,"2015-11-14T11:56:31-0500,2015-11-14T11:56:31-0500,2015-11-28T19:01:05-0500",Nov 28,,16,0
"2015-11-20T16:36:42-0500,2015-11-20T16:36:42-0500,2015-11-28T19:01:33-0500",5324976845, (1145 Greene ave),1000,"Beautiful Renovated apt in Bushwick, Rooms Available!!",-73.923027,,40.694481,/brk/roo/5324976845.html,5,"2015-11-20T16:36:42-0500,2015-11-20T16:36:42-0500,2015-11-28T19:01:33-0500",Nov 28,,17,0
"2015-11-28T14:39:17-0500,2015-11-28T14:39:17-0500",5335781456, (Bushwick@Dekalb L/Knickerbocker M),850,Last Roommate Needed ASAP!!! | Just 1 Block From DEKALB LLLLLL,-73.919749,,40.701431,/brk/roo/5335781456.html,8,"2015-11-28T14:39:17-0500,2015-11-28T14:39:17-0500",Nov 28,,34,0
"2015-11-23T15:58:10-0500,2015-11-23T15:58:10-0500,2015-11-28T22:12:10-0500",5329274287, (Kings Hwy),780,Room available,-73.954389,,40.608675,/brk/roo/5329274287.html,5,"2015-11-23T15:58:10-0500,2015-11-23T15:58:10-0500,2015-11-28T22:12:10-0500",Nov 28,,3,0
"2015-11-28T19:02:06-0500,2015-11-28T19:02:06-0500",5336172010, (bedstuy),640,Need To Move Now?! No Worries I Have the Keys,,,,/brk/roo/5336172010.html,4,"2015-11-28T19:02:06-0500,2015-11-28T19:02:06-0500",Nov 28,,23,0
"2015-11-28T22:05:57-0500,2015-11-28T22:05:57-0500",5336356793,,1299,**WILLIAMSBURG CHARM**___JAN 1__HOT SPOT___**1 STOP TO NYC!**,-73.964596,,40.712655,/brk/roo/5336356793.html,4,"2015-11-28T22:05:57-0500,2015-11-28T22:05:57-0500",Nov 28,,9,0
"2015-11-28T22:16:59-0500,2015-11-28T22:16:59-0500",5336366056, (Decatur St @ Wilson ave),950,Furnished bedroom in 2 bedroom apartment,,,,/brk/roo/5336366056.html,0,"2015-11-28T22:16:59-0500,2015-11-28T22:16:59-0500",Nov 28,,1,0
"2015-11-28T16:35:17-0500,2015-11-28T16:35:17-0500",5335973585, (EAST BROOKLYN),599,CLOSE TO SUBWAY**3&4 TRAINS**ROOM FOR RENT IN BRAND NEW APARTMENT,,,,/brk/roo/5335973585.html,4,"2015-11-28T16:35:17-0500,2015-11-28T16:35:17-0500",Nov 28,,10,0
"2015-11-26T15:06:15-0500,2015-11-26T15:06:15-0500,2015-11-28T22:14:06-0500",5333259078, (MILL BASIN),,LIVE IN COMPANION,,,,/brk/roo/5333259078.html,0,"2015-11-26T15:06:15-0500,2015-11-26T15:06:15-0500,2015-11-28T22:14:06-0500",Nov 28,,3,0
"2015-11-28T22:19:08-0500,2015-11-28T22:19:08-0500,2015-11-28T22:53:00-0500",5336367845, (Brooklyn),825,Room for Rent in Bay Ridge - Dec. 1st,-74.01721,108,40.6337,/brk/roo/5336367845.html,6,"2015-11-28T22:19:08-0500,2015-11-28T22:19:08-0500,2015-11-28T22:53:00-0500",Nov 28,,3,0
"2015-11-28T22:20:54-0500,2015-11-28T22:20:54-0500",5336369265, (Bushwick/Ridgewood),900,Brand new! Sunny & spacious rooms. M/L trains. Laundry,-73.908927,,40.704995,/brk/roo/5336369265.html,11,"2015-11-28T22:20:54-0500,2015-11-28T22:20:54-0500",Nov 28,,22,0
"2015-11-28T22:24:43-0500,2015-11-28T22:24:43-0500",5336372364, (WILLIAMSBURG),925,LARGE BEDROOM IN LOFT,-73.9436,165,40.7012,/brk/roo/5336372364.html,3,"2015-11-28T22:24:43-0500,2015-11-28T22:24:43-0500",Nov 28,,5,0
"2015-11-28T16:03:02-0500,2015-11-28T16:03:02-0500,2015-11-28T16:03:03-0500",5335922540, (bushwick),1000,Bright spacious room with balcony access. Walk to M and J trains.,-73.923075,,40.694696,/brk/roo/5335922540.html,14,"2015-11-28T16:03:02-0500,2015-11-28T16:03:02-0500,2015-11-28T16:03:03-0500",Nov 28,,10,0
"2015-11-28T22:21:30-0500,2015-11-28T22:21:30-0500",5336369740, (Williamsburg / Greenpoint),1300,Graham L--McCarren Park--New everything + roof deck! Laundry,-73.946798,,40.718864,/brk/roo/5336369740.html,12,"2015-11-28T22:21:30-0500,2015-11-28T22:21:30-0500",Nov 28,,13,0
"2015-11-28T16:49:25-0500,2015-11-28T16:49:25-0500",5335995303, (park slope north),1500,LIGHT BR in ENTIRE BROWNSTONE w GARDEN!,-73.980423,162,40.673959,/brk/roo/5335995303.html,0,"2015-11-28T16:49:25-0500,2015-11-28T16:49:25-0500",Nov 28,,13,0
"2015-11-25T15:20:04-0500,2015-11-25T15:20:04-0500,2015-11-28T16:44:42-0500",5332194712, (Crown Heights),850,Unfurnished Bedroom/$850 Single Person,,,,/brk/roo/5332194712.html,0,"2015-11-25T15:20:04-0500,2015-11-25T15:20:04-0500,2015-11-28T16:44:42-0500",Nov 28,,3,0
"2015-11-28T14:42:00-0500,2015-11-28T14:42:00-0500",5335786290, (Brooklyn),950,"$950 Morgan Avenue Huge Loft Apt, 5 rm share, 1 loft rm available",-73.934562,,40.703243,/brk/roo/5335786290.html,6,"2015-11-28T14:42:00-0500,2015-11-28T14:42:00-0500",Nov 28,,20,0
"2015-11-24T16:51:58-0500,2015-11-24T16:51:58-0500,2015-11-28T16:45:52-0500",5330901513, (East New york),200,Rooms available,-73.896146,,40.662239,/brk/roo/5330901513.html,0,"2015-11-24T16:51:58-0500,2015-11-24T16:51:58-0500,2015-11-28T16:45:52-0500",Nov 28,,3,0
"2015-11-28T16:36:12-0500,2015-11-28T16:36:12-0500",5335975050, (Flatbush / 2&5 Trains),650,30 SECOND walk 2 Subway**Gorgeous Apt w/Exp'd Brick Wall**Big Bedrooms,-73.948996,,40.645285,/brk/roo/5335975050.html,10,"2015-11-28T16:36:12-0500,2015-11-28T16:36:12-0500",Nov 28,,9,0
"2015-11-20T20:59:32-0500,2015-11-20T20:59:32-0500,2015-11-28T16:48:10-0500",5325327723, (Bushwick),775,First time {=[=Brooklynite hoping to find great ppl to join me!,-73.914642,,40.687507,/brk/roo/5325327723.html,6,"2015-11-20T20:59:32-0500,2015-11-20T20:59:32-0500,2015-11-28T16:48:10-0500",Nov 28,,63,0
"2015-11-28T16:54:33-0500,2015-11-28T16:54:33-0500",5336002982, (park slope),1500,Brownstone House Share,,200,,/brk/roo/5336002982.html,6,"2015-11-28T16:54:33-0500,2015-11-28T16:54:33-0500",Nov 28,,30,0
"2015-11-28T16:10:07-0500,2015-11-28T16:10:07-0500",5335933906, (437 Throop Ave),825,Apartments you deserve to live!!! Easy process and affordable price,-73.941916,,40.687881,/brk/roo/5335933906.html,10,"2015-11-28T16:10:07-0500,2015-11-28T16:10:07-0500",Nov 28,,10,0
"2015-11-28T14:42:59-0500,2015-11-28T14:42:59-0500",5335788049," (Brooklyn, Bedstuy)",900,LIVING LARGE IN BEDSTUY - 1 ROOMIE NEEDED TO COMPLETE A 3 BEDROOM UNIT,,,,/brk/roo/5335788049.html,8,"2015-11-28T14:42:59-0500,2015-11-28T14:42:59-0500",Nov 28,,1,0
"2015-11-01T15:17:08-0500,2015-11-01T15:17:08-0500,2015-11-28T14:39:08-0500",5295571107, (Williamsburg),1300,1 BR sublet Dec 17th - February 1st,-73.950646,450,40.721705,/brk/roo/5295571107.html,0,"2015-11-01T15:17:08-0500,2015-11-01T15:17:08-0500,2015-11-28T14:39:08-0500",Nov 28,,17,0
"2015-11-21T15:25:43-0500,2015-11-21T15:25:43-0500,2015-11-28T14:40:48-0500",5326370453, (Brooklyn),,""" VERY NICE FURNISHED ROOMS IN MDWOOD AREA IN Brooklyn """,,,,/brk/roo/5326370453.html,3,"2015-11-21T15:25:43-0500,2015-11-21T15:25:43-0500,2015-11-28T14:40:48-0500",Nov 28,,4,0
"2015-11-28T14:20:56-0500,2015-11-28T14:20:56-0500",5335748652," (Ft. Greene, Brooklyn)",1400,Fantastic! Penthouse Apartment share - Dec '15,-73.975243,,40.685406,/brk/roo/5335748652.html,6,"2015-11-28T14:20:56-0500,2015-11-28T14:20:56-0500",Nov 28,,21,0
"2015-11-28T14:40:10-0500,2015-11-28T14:40:10-0500",5335782955, (Greenpoint),1040,**Cute room in heart of Greenpoint! All utilities included**,-73.95479,,40.732283,/brk/roo/5335782955.html,11,"2015-11-28T14:40:10-0500,2015-11-28T14:40:10-0500",Nov 28,,16,0
"2015-11-28T19:10:46-0500,2015-11-28T19:10:46-0500",5336182006, (Flatbush),650,Room for rent,-73.9563,,40.655049,/brk/roo/5336182006.html,0,"2015-11-28T19:10:46-0500,2015-11-28T19:10:46-0500",Nov 28,,18,0
"2015-11-28T19:01:39-0500,2015-11-28T19:01:39-0500",5336171526, (bedstuy),640,Need To Move Now?! No Worries I Have the Keys,,,,/brk/roo/5336171526.html,4,"2015-11-28T19:01:39-0500,2015-11-28T19:01:39-0500",Nov 28,,23,0
"2015-11-28T18:16:53-0500,2015-11-28T18:16:53-0500",5336116510, (255 Hart Street),775,Looking for a bargain? Look no more. New renovated and affordable room,-73.940927,,40.694072,/brk/roo/5336116510.html,10,"2015-11-28T18:16:53-0500,2015-11-28T18:16:53-0500",Nov 28,,12,0
"2015-11-19T09:23:27-0500,2015-11-19T09:23:27-0500,2015-11-28T19:10:58-0500",5322753308, (Bushwick),800,MASSIVE APARTMENT!! BACKYARD!! CENTRAL A/C!! JMZ TRAINS!! NO FEE,-73.924397,,40.692716,/brk/roo/5322753308.html,11,"2015-11-19T09:23:27-0500,2015-11-19T09:23:27-0500,2015-11-28T19:10:58-0500",Nov 28,,30,0
"2015-11-28T19:16:11-0500,2015-11-28T19:16:11-0500",5336188038, (Bushwick),950,Brand-New Rooms! Luxury 3br 2baths!,-73.916824,,40.688747,/brk/roo/5336188038.html,7,"2015-11-28T19:16:11-0500,2015-11-28T19:16:11-0500",Nov 28,,18,0
"2015-11-28T19:19:17-0500,2015-11-28T19:19:17-0500",5336191430, (Bushwick),750,Rooms in a Huge Duplex!!!!!!!!!!!!!!!!!!,-73.911518,,40.681712,/brk/roo/5336191430.html,8,"2015-11-28T19:19:17-0500,2015-11-28T19:19:17-0500",Nov 28,,18,0
"2015-11-13T14:11:59-0500,2015-11-13T14:11:59-0500,2015-11-28T19:17:39-0500",5314315226, (Marlborough Rd at Newkirk Ave.),1050,Room in beautiful Ditmas Park 2BR,-73.96343,125,40.635954,/brk/roo/5314315226.html,9,"2015-11-13T14:11:59-0500,2015-11-13T14:11:59-0500,2015-11-28T19:17:39-0500",Nov 28,,11,0
"2015-11-24T06:40:25-0500,2015-11-24T06:40:25-0500,2015-11-28T18:02:53-0500",5330019257,,640,Cozy 6 BDRM/ 2 BATH in BedStuy,-73.9211,,40.6784,/brk/roo/5330019257.html,6,"2015-11-24T06:40:25-0500,2015-11-24T06:40:25-0500,2015-11-28T18:02:53-0500",Nov 28,,21,0
"2015-11-24T06:39:29-0500,2015-11-24T06:39:29-0500,2015-11-28T18:03:17-0500",5330018902,,640,Cozy 6 BDRM/ 2 BATH in BedStuy,-73.9211,,40.6784,/brk/roo/5330018902.html,6,"2015-11-24T06:39:29-0500,2015-11-24T06:39:29-0500,2015-11-28T18:03:17-0500",Nov 28,,22,0
"2015-11-24T06:38:39-0500,2015-11-24T06:38:39-0500,2015-11-28T18:03:34-0500",5330018594,,640,Cozy 6 BDRM/ 2 BATH in BedStuy,-73.9211,,40.6784,/brk/roo/5330018594.html,6,"2015-11-24T06:38:39-0500,2015-11-24T06:38:39-0500,2015-11-28T18:03:34-0500",Nov 28,,22,0
"2015-11-24T06:31:36-0500,2015-11-24T06:31:36-0500,2015-11-28T18:03:42-0500",5330015905,,875,The Best Apartment Share In Bushwick!!!,-73.8736,,40.6762,/brk/roo/5330015905.html,11,"2015-11-24T06:31:36-0500,2015-11-24T06:31:36-0500,2015-11-28T18:03:42-0500",Nov 28,,18,0
"2015-11-28T22:29:37-0500,2015-11-28T22:29:37-0500",5336376337, (1229 Bedford Ave),850,Huge 15'x11' Room in Bed-Stuy,-73.953484,,40.681218,/brk/roo/5336376337.html,0,"2015-11-28T22:29:37-0500,2015-11-28T22:29:37-0500",Nov 28,,17,0
"2015-11-28T22:25:44-0500,2015-11-28T22:25:44-0500",5336373157, (Bushwick / Ridgewood),900,Rooms available--Brand new--Sunny & Spacious--Jefferson L--Laundry,-73.916064,,40.709213,/brk/roo/5336373157.html,13,"2015-11-28T22:25:44-0500,2015-11-28T22:25:44-0500",Nov 28,,23,0
"2015-11-20T20:21:54-0500,2015-11-20T20:21:54-0500,2015-11-28T16:54:36-0500",5325287620, (interfaith medical area),700,"Clean/420Friendly,",,,,/brk/roo/5325287620.html,5,"2015-11-20T20:21:54-0500,2015-11-20T20:21:54-0500,2015-11-28T16:54:36-0500",Nov 28,,9,0
"2015-11-28T22:30:18-0500,2015-11-28T22:30:18-0500,2015-11-28T22:49:46-0500",5336376920, (Bedstuy),950,Large Sunny Room available 1/17,,,,/brk/roo/5336376920.html,5,"2015-11-28T22:30:18-0500,2015-11-28T22:30:18-0500,2015-11-28T22:49:46-0500",Nov 28,,14,0
"2015-11-20T15:30:37-0500,2015-11-20T15:30:37-0500,2015-11-28T22:27:56-0500",5324863910, (Brooklyn Crown Heights),750,Rooms available in beautiful 3 bedroom brownstone w huge backyard!,-73.931272,1100,40.672322,/brk/roo/5324863910.html,5,"2015-11-20T15:30:37-0500,2015-11-20T15:30:37-0500,2015-11-28T22:27:56-0500",Nov 28,,21,0
"2015-11-28T22:16:51-0500,2015-11-28T22:16:51-0500",5336365921, (Bushwick - JMZ at Myrtle/Broadway),1039,"Rooms available in Bushwick luxury bldg! Elevator, laundry in apt!",-73.933828,,40.696184,/brk/roo/5336365921.html,23,"2015-11-28T22:16:51-0500,2015-11-28T22:16:51-0500",Nov 28,,15,0
"2015-11-07T21:55:54-0500,2015-11-07T21:55:54-0500,2015-11-28T22:29:08-0500",5305625465, (Brooklyn),750,Beautiful Crown Heights Brooklyn Brownstone w/ 2 Rooms for Rent,-73.931165,1100,40.672436,/brk/roo/5305625465.html,6,"2015-11-07T21:55:54-0500,2015-11-07T21:55:54-0500,2015-11-28T22:29:08-0500",Nov 28,,20,0
"2015-11-20T20:54:25-0500,2015-11-20T20:54:25-0500,2015-11-28T16:52:39-0500",5325322415, (Bushwick),777,"Get a gorgeous view,{>{> tons of Sunlight, and a brand new home",-73.914642,,40.687507,/brk/roo/5325322415.html,4,"2015-11-20T20:54:25-0500,2015-11-20T20:54:25-0500,2015-11-28T16:52:39-0500",Nov 28,,62,0
"2015-11-28T16:10:04-0500,2015-11-28T16:10:04-0500",5335933826, (255 Hart Street),900,Do you want to discover best rooms in the market? Brand new renovated,-73.940927,,40.694072,/brk/roo/5335933826.html,10,"2015-11-28T16:10:04-0500,2015-11-28T16:10:04-0500",Nov 28,,16,0
"2015-11-25T15:54:58-0500,2015-11-25T15:54:58-0500,2015-11-28T16:55:51-0500",5332246560, (Crown heights),250,Rooms available,-73.941218,,40.67303,/brk/roo/5332246560.html,0,"2015-11-25T15:54:58-0500,2015-11-25T15:54:58-0500,2015-11-28T16:55:51-0500",Nov 28,,3,0
"2015-11-26T16:18:35-0500,2015-11-26T16:18:35-0500,2015-11-28T16:57:22-0500",5333317940, (Williamsburg/L Bedford),1499,LAST ROOM! Bedford! Vincent De Paul Church 145year old Catholic church,-73.958287,,40.717322,/brk/roo/5333317940.html,13,"2015-11-26T16:18:35-0500,2015-11-26T16:18:35-0500,2015-11-28T16:57:22-0500",Nov 28,,38,0
"2015-11-20T20:56:40-0500,2015-11-20T20:56:40-0500,2015-11-28T16:57:54-0500",5325324793, (Weirfield),776,"Gut Renovated --""""- LUXURY building, Friendly and chill roommate :)",-73.914642,,40.687507,/brk/roo/5325324793.html,5,"2015-11-20T20:56:40-0500,2015-11-20T20:56:40-0500,2015-11-28T16:57:54-0500",Nov 28,,60,0
"2015-11-21T15:15:52-0500,2015-11-21T15:15:52-0500,2015-11-28T16:58:08-0500",5326354181, (MANHATTAN/2!@862ZEORZERO3ZEERO),,QUALITY RENTALS IN NYC===DELTAROOMRENTALS.COM--MOVE TODAY,-73.9507,,40.8246,/brk/roo/5326354181.html,0,"2015-11-21T15:15:52-0500,2015-11-21T15:15:52-0500,2015-11-28T16:58:08-0500",Nov 28,,5,0
"2015-11-16T08:50:39-0500,2015-11-16T08:50:39-0500,2015-11-28T16:59:03-0500",5318099772, (Bushwick),975,"You're an Adult, You Deserve Your Own Private Bathroom..",-73.913307,,40.693641,/brk/roo/5318099772.html,7,"2015-11-16T08:50:39-0500,2015-11-16T08:50:39-0500,2015-11-28T16:59:03-0500",Nov 28,,20,0
"2015-11-24T20:37:36-0500,2015-11-24T20:37:36-0500,2015-11-28T16:59:31-0500",5331190213, (CROWN HEIGHTS),775,FABOLOUS LARGE ROOM****2BATHS**EXPOSE BRICK * BACK YARD!!,-73.90382,,40.675379,/brk/roo/5331190213.html,10,"2015-11-24T20:37:36-0500,2015-11-24T20:37:36-0500,2015-11-28T16:59:31-0500",Nov 28,,21,0
"2015-11-28T14:49:36-0500,2015-11-28T14:49:36-0500",5335799666, (Prospect Lefferts Garden),999,Young Professional is looking for A roommate $900,-73.94786,500,40.654285,/brk/roo/5335799666.html,6,"2015-11-28T14:49:36-0500,2015-11-28T14:49:36-0500",Nov 28,,26,0
"2015-11-23T14:52:46-0500,2015-11-23T14:52:46-0500,2015-11-28T14:44:56-0500",5329156537, (CROWN/PROSPECT HEIGHTS),900,TWO COOL PEOPLE SEARCHING FOR OUR 3RD ROOMIE! VIEW TODAY!,-73.957021,,40.673294,/brk/roo/5329156537.html,8,"2015-11-23T14:52:46-0500,2015-11-23T14:52:46-0500,2015-11-28T14:44:56-0500",Nov 28,,45,0
"2015-11-28T13:50:55-0500,2015-11-28T13:50:55-0500",5335693852, (Bed stuy),800,Easily get approved,,,,/brk/roo/5335693852.html,3,"2015-11-28T13:50:55-0500,2015-11-28T13:50:55-0500",Nov 28,,3,0
"2015-11-28T14:28:19-0500,2015-11-28T14:28:19-0500",5335762019, (Plz no brokers..text or call),150,"2 Beautiful Rooms w/Furniture,tv,wifi & privacy.KINGS HIGHWAY & 54th.",,,,/brk/roo/5335762019.html,0,"2015-11-28T14:28:19-0500,2015-11-28T14:28:19-0500",Nov 28,,15,0
"2015-11-28T14:59:30-0500,2015-11-28T14:59:30-0500",5335816879,,,Great Room in Williamsburg. $1270,,,,/brk/roo/5335816879.html,8,"2015-11-28T14:59:30-0500,2015-11-28T14:59:30-0500",Nov 28,,21,0
"2015-11-28T14:44:43-0500,2015-11-28T14:44:43-0500",5335790995, (Bushwick@Morgan LLLL),1200,BIIIG Room Avai ASAP! in 3BR/2BA+Yard | Near MORGAN LLLLL,-73.9298,,40.704305,/brk/roo/5335790995.html,9,"2015-11-28T14:44:43-0500,2015-11-28T14:44:43-0500",Nov 28,,16,0
"2015-11-28T14:50:01-0500,2015-11-28T14:50:01-0500",5335800440, (Williamsburg),1650,2 Rooms in Amazing Williamsburg Penthouse!,,,,/brk/roo/5335800440.html,13,"2015-11-28T14:50:01-0500,2015-11-28T14:50:01-0500",Nov 28,,16,0
"2015-11-18T12:27:18-0500,2015-11-18T12:27:18-0500,2015-11-28T19:22:27-0500",5321589865, (65 South 11th st),1365,Room in Williamsburg,-73.967514,,40.708231,/brk/roo/5321589865.html,6,"2015-11-18T12:27:18-0500,2015-11-18T12:27:18-0500,2015-11-28T19:22:27-0500",Nov 28,,2,0
"2015-11-28T19:22:09-0500,2015-11-28T19:22:09-0500",5336194667, (Bushwick),950,Large room w/huge closet. All utilities and Internet included. No fee,-73.91726,,40.692109,/brk/roo/5336194667.html,6,"2015-11-28T19:22:09-0500,2015-11-28T19:22:09-0500",Nov 28,,5,0
"2015-11-08T12:17:03-0500,2015-11-08T12:17:03-0500,2015-11-28T14:50:57-0500",5306176081, (10th Ave and 60s Street),650,Huge Bdrm with closet and windows,-73.996,,40.6336,/brk/roo/5306176081.html,4,"2015-11-08T12:17:03-0500,2015-11-08T12:17:03-0500,2015-11-28T14:50:57-0500",Nov 28,,4,0
"2015-11-24T05:38:58-0500,2015-11-24T05:38:58-0500,2015-11-28T18:03:50-0500",5329998430,,925,Your New Sanctuary ! Brand New 3 bed 1.5 bath for Rent!!,-73.9274,,40.6907,/brk/roo/5329998430.html,7,"2015-11-24T05:38:58-0500,2015-11-24T05:38:58-0500,2015-11-28T18:03:50-0500",Nov 28,,18,0
"2015-11-16T11:17:21-0500,2015-11-16T11:17:21-0500,2015-11-28T19:23:32-0500",5318332559, (65 south 11th st),1365,room in 2 br apt in Williamsburg,-73.965111,,40.70745,/brk/roo/5318332559.html,6,"2015-11-16T11:17:21-0500,2015-11-16T11:17:21-0500,2015-11-28T19:23:32-0500",Nov 28,,2,0
"2015-11-24T18:38:06-0500,2015-11-24T18:38:06-0500,2015-11-28T19:25:51-0500",5331051277, (Crown Heights-Rockaway C/B-Way Junction),675,Rm avail for asap/Dec 1st move in_brand new apt_suunnnnnny,-73.915306,,40.67577,/brk/roo/5331051277.html,10,"2015-11-24T18:38:06-0500,2015-11-24T18:38:06-0500,2015-11-28T19:25:51-0500",Nov 28,,32,0
"2015-11-28T19:17:58-0500,2015-11-28T19:17:58-0500",5336190003, (Bushwick),950,Huge room. All utilities + Internet included. No fee.,-73.917174,,40.692223,/brk/roo/5336190003.html,3,"2015-11-28T19:17:58-0500,2015-11-28T19:17:58-0500",Nov 28,,3,0
"2015-11-28T19:32:19-0500,2015-11-28T19:32:19-0500,2015-11-28T19:45:28-0500",5336205937, (Ditmas Park),1200,High School Teacher Seeks Roomie ASAP,-73.96881,,40.649084,/brk/roo/5336205937.html,2,"2015-11-28T19:32:19-0500,2015-11-28T19:32:19-0500,2015-11-28T19:45:28-0500",Nov 28,,1,0
"2015-11-28T18:08:44-0500,2015-11-28T18:08:44-0500",5336106080, (Bushwick),950,Rooms with Private Bathrooms! Balcony!,-73.916824,,40.688747,/brk/roo/5336106080.html,9,"2015-11-28T18:08:44-0500,2015-11-28T18:08:44-0500",Nov 28,,18,0
"2015-11-28T19:22:15-0500,2015-11-28T19:22:15-0500",5336194769, (Crown Heights/ Prospect Heights),1200,Rooms available in Prospect Heights area in a 4 Bedroom 3 Full Bath,-73.953094,,40.674129,/brk/roo/5336194769.html,24,"2015-11-28T19:22:15-0500,2015-11-28T19:22:15-0500",Nov 28,,25,0
"2015-11-16T11:09:01-0500,2015-11-16T11:09:01-0500,2015-11-28T19:23:50-0500",5318316988, (65 South 11th st),1365,Room in 2 br Williamsburg,-73.967836,,40.707596,/brk/roo/5318316988.html,5,"2015-11-16T11:09:01-0500,2015-11-16T11:09:01-0500,2015-11-28T19:23:50-0500",Nov 28,,2,0
"2015-11-28T18:08:48-0500,2015-11-28T18:08:48-0500",5336106157, (Bushwick),850,V Beautiful & Super Nice Hart Street Duplex,-73.9274,,40.6907,/brk/roo/5336106157.html,19,"2015-11-28T18:08:48-0500,2015-11-28T18:08:48-0500",Nov 28,,14,0
"2015-11-24T06:04:21-0500,2015-11-24T06:04:21-0500,2015-11-28T18:04:00-0500",5330006123,,640,Cozy 6 BDRM/ 2 BATH in BedStuy,-73.9211,,40.6784,/brk/roo/5330006123.html,6,"2015-11-24T06:04:21-0500,2015-11-24T06:04:21-0500,2015-11-28T18:04:00-0500",Nov 28,,22,0
"2015-11-24T06:09:21-0500,2015-11-24T06:09:21-0500,2015-11-28T18:04:11-0500",5330007739,,640,Cozy 6 BDRM/ 2 BATH in BedStuy,-73.9211,,40.6784,/brk/roo/5330007739.html,6,"2015-11-24T06:09:21-0500,2015-11-24T06:09:21-0500,2015-11-28T18:04:11-0500",Nov 28,,22,0
"2015-11-28T22:37:58-0500,2015-11-28T22:37:58-0500",5336382904, (Bushwick / Ridgewood),900,Brand new! Sunny & spacious rooms. Jefferson L train. Laundry,-73.916064,,40.709213,/brk/roo/5336382904.html,13,"2015-11-28T22:37:58-0500,2015-11-28T22:37:58-0500",Nov 28,,23,0
"2015-11-24T06:05:55-0500,2015-11-24T06:05:55-0500,2015-11-28T18:04:18-0500",5330006579,,640,Cozy 6 BDRM/ 2 BATH in BedStuy,-73.9211,,40.6784,/brk/roo/5330006579.html,6,"2015-11-24T06:05:55-0500,2015-11-24T06:05:55-0500,2015-11-28T18:04:18-0500",Nov 28,,22,0
"2015-11-24T06:06:30-0500,2015-11-24T06:06:30-0500,2015-11-28T18:04:25-0500",5330006786,,640,Cozy 6 BDRM/ 2 BATH in BedStuy,-73.9211,,40.6784,/brk/roo/5330006786.html,6,"2015-11-24T06:06:30-0500,2015-11-24T06:06:30-0500,2015-11-28T18:04:25-0500",Nov 28,,22,0
"2015-11-28T18:09:28-0500,2015-11-28T18:09:28-0500",5336107028, (Bushwick),750,Rooms! Tons of Space! High Ceilings!,-73.911518,,40.681712,/brk/roo/5336107028.html,8,"2015-11-28T18:09:28-0500,2015-11-28T18:09:28-0500",Nov 28,,19,0
"2015-11-28T22:39:47-0500,2015-11-28T22:39:47-0500",5336384379, (Bushwick / Ridgewood),900,Brand new! Sunny & spacious rooms. Jefferson L train. Laundry,-73.916064,,40.709213,/brk/roo/5336384379.html,13,"2015-11-28T22:39:47-0500,2015-11-28T22:39:47-0500",Nov 28,,23,0
"2015-11-28T22:47:52-0500,2015-11-28T22:47:52-0500",5336390803, (Bedstuy),950,"""""Christmas Holiday"""" ready inMulticulture Living Brownstone",,,,/brk/roo/5336390803.html,7,"2015-11-28T22:47:52-0500,2015-11-28T22:47:52-0500",Nov 28,,8,0
"2015-11-28T22:39:45-0500,2015-11-28T22:39:45-0500",5336384349, (Bushwick/Ridgewood),800,Rooms available--Beautifully renovated--M/L train--Laundry,-73.908927,,40.704995,/brk/roo/5336384349.html,11,"2015-11-28T22:39:45-0500,2015-11-28T22:39:45-0500",Nov 28,,22,0
"2015-11-11T09:01:41-0500,2015-11-11T09:01:41-0500,2015-11-28T22:52:56-0500",5310564017, (Bushwick),850,Great 4br Reasy ASAP/Modern Space,,,,/brk/roo/5310564017.html,7,"2015-11-11T09:01:41-0500,2015-11-11T09:01:41-0500,2015-11-28T22:52:56-0500",Nov 28,,6,0
"2015-11-18T00:51:53-0500,2015-11-18T00:51:53-0500,2015-11-28T22:55:44-0500",5321035612," (Brooklyn, NY)",950,ROOM 1 - JAN 2016 - MED STUDENT HOUSING,-73.908101,125,40.692976,/brk/roo/5321035612.html,5,"2015-11-18T00:51:53-0500,2015-11-18T00:51:53-0500,2015-11-28T22:55:44-0500",Nov 28,,18,0
"2015-11-24T20:16:16-0500,2015-11-24T20:16:16-0500,2015-11-28T17:01:34-0500",5331167233, (BUSHWICK/EAST WILLIAMSBURG),850,GORGEOUS LARGE ROOM*****2BATHS***LAUNDRY* SUPER LOCATION* A MUST SEE,-73.91862,,40.691808,/brk/roo/5331167233.html,7,"2015-11-24T20:16:16-0500,2015-11-24T20:16:16-0500,2015-11-28T17:01:34-0500",Nov 28,,21,0
"2015-11-28T22:30:06-0500,2015-11-28T22:30:06-0500",5336376740, (Bushwick / Ridgewood),900,Brand new! Sunny & spacious rooms. Jefferson L train. Laundry,-73.916064,,40.709213,/brk/roo/5336376740.html,12,"2015-11-28T22:30:06-0500,2015-11-28T22:30:06-0500",Nov 28,,23,0
"2015-11-28T16:55:02-0500,2015-11-28T16:55:02-0500",5336003713, (Hawaii),,Housing for Work Trade,-158.087,,21.3453,/brk/roo/5336003713.html,0,"2015-11-28T16:55:02-0500,2015-11-28T16:55:02-0500",Nov 28,,1,0
"2015-11-28T17:01:46-0500,2015-11-28T17:01:46-0500",5336013714, (CROWN/PROSPECT HEIGHTS* NOFEE),900,TWO COOL PEOPLE SEARCHING FOR OUR 3RD ROOMIE! VIEW TODAY!,-73.957021,,40.673294,/brk/roo/5336013714.html,8,"2015-11-28T17:01:46-0500,2015-11-28T17:01:46-0500",Nov 28,,45,0
"2015-11-22T15:11:50-0500,2015-11-22T15:11:50-0500,2015-11-28T17:04:05-0500",5327670885, (BUSHWICK/RIDGEWOOD),875,WOW **BRAND NEW LARGE ROOM*****2BATHS****LAUNDRY & MORE!!HURRY!!,-73.908989,,40.705032,/brk/roo/5327670885.html,8,"2015-11-22T15:11:50-0500,2015-11-22T15:11:50-0500,2015-11-28T17:04:05-0500",Nov 28,,22,0
"2015-11-20T21:03:44-0500,2015-11-20T21:03:44-0500,2015-11-28T17:02:30-0500",5325332087, (Bushwick),776,"Find all amenities+--+ here, & an awesome roommate",-73.914642,,40.687507,/brk/roo/5325332087.html,6,"2015-11-20T21:03:44-0500,2015-11-20T21:03:44-0500,2015-11-28T17:02:30-0500",Nov 28,,62,0
"2015-11-28T16:59:11-0500,2015-11-28T16:59:11-0500",5336009953, (BEDSTUY),640,HUGE NEWLY RENO ROOM******2BATHS******LAUNDRY *ROOF & MORE * HURRY!!,-73.911374,,40.68098,/brk/roo/5336009953.html,8,"2015-11-28T16:59:11-0500,2015-11-28T16:59:11-0500",Nov 28,,23,0
"2015-11-28T17:09:10-0500,2015-11-28T17:09:10-0500",5336024464, (WILLIAMSBURG),925,LARGE BEDROOM IN LOFT,-73.9436,165,40.7012,/brk/roo/5336024464.html,3,"2015-11-28T17:09:10-0500,2015-11-28T17:09:10-0500",Nov 28,,8,0
"2015-11-22T15:35:10-0500,2015-11-22T15:35:10-0500,2015-11-28T17:04:46-0500",5327706325, (EAST WILLIAMSBURG/BUSHWICK),850,BRAND NEW LARGE ROOM*****GREAT LOCATION*5 MIN TO SUBWAY*LAUNDRY & MORE,-73.913946,,40.689409,/brk/roo/5327706325.html,7,"2015-11-22T15:35:10-0500,2015-11-22T15:35:10-0500,2015-11-28T17:04:46-0500",Nov 28,,21,0
"2015-11-28T17:09:58-0500,2015-11-28T17:09:58-0500",5336025645,,300,"12/22 - 01/01: Furnished sunny room in big Brownstone, great community",,,,/brk/roo/5336025645.html,6,"2015-11-28T17:09:58-0500,2015-11-28T17:09:58-0500",Nov 28,,15,0
"2015-11-28T16:10:03-0500,2015-11-28T16:10:03-0500",5335933811, (255 Hart Street),775,Looking for a bargain? Look no more. New renovated and affordable,-73.940927,,40.694072,/brk/roo/5335933811.html,10,"2015-11-28T16:10:03-0500,2015-11-28T16:10:03-0500",Nov 28,,13,0
"2015-11-22T16:52:50-0500,2015-11-22T16:52:50-0500,2015-11-28T14:58:11-0500",5327818383, (Flatbush),800,XL room and Medium room left for rent-W/D in unit,-73.94937,,40.648923,/brk/roo/5327818383.html,9,"2015-11-22T16:52:50-0500,2015-11-22T16:52:50-0500,2015-11-28T14:58:11-0500",Nov 28,,10,0
"2015-11-28T15:03:22-0500,2015-11-28T15:03:22-0500",5335823679, (bedstuy),500,Large Furnished Attic Room SUBLET December 1st. Utilities Incl,-73.950737,,40.6862,/brk/roo/5335823679.html,4,"2015-11-28T15:03:22-0500,2015-11-28T15:03:22-0500",Nov 28,,9,0
"2015-11-28T15:00:50-0500,2015-11-28T15:00:50-0500",5335819276, (Bushwick@Dekalb L-Knickerbocker M),850,Cute Room Avai ASAP!!!!! | Just 1 Block From Dekalb LLLLLL,-73.919323,,40.701831,/brk/roo/5335819276.html,9,"2015-11-28T15:00:50-0500,2015-11-28T15:00:50-0500",Nov 28,,35,0
"2015-11-07T17:14:04-0500,2015-11-07T17:14:04-0500,2015-11-28T14:59:32-0500",5305319228, (Flatbush),800,Last room @ $800 available for rent-12/1 move in,-73.94937,,40.648923,/brk/roo/5305319228.html,9,"2015-11-07T17:14:04-0500,2015-11-07T17:14:04-0500,2015-11-28T14:59:32-0500",Nov 28,,11,0
"2015-11-28T15:04:44-0500,2015-11-28T15:04:44-0500",5335826057, (Sunset park),1050,Spacious bedroom in Brooklyn $1050,-74.009078,,40.649664,/brk/roo/5335826057.html,0,"2015-11-28T15:04:44-0500,2015-11-28T15:04:44-0500",Nov 28,,10,0
"2015-11-25T14:33:08-0500,2015-11-25T14:33:08-0500,2015-11-28T15:04:53-0500",5332121445, (Bushwick/Bedstuy),825,Room for Rent - Three blocks from J/Z,-73.92013,,40.68747,/brk/roo/5332121445.html,3,"2015-11-25T14:33:08-0500,2015-11-25T14:33:08-0500,2015-11-28T15:04:53-0500",Nov 28,,32,0
"2015-11-05T19:01:38-0500,2015-11-05T19:01:38-0500,2015-11-28T15:05:19-0500",5302373849, (Bushwick),850,Amazing Space PASS BY SOON,,,,/brk/roo/5302373849.html,13,"2015-11-05T19:01:38-0500,2015-11-05T19:01:38-0500,2015-11-28T15:05:19-0500",Nov 28,,8,0
"2015-11-25T21:10:58-0500,2015-11-25T21:10:58-0500,2015-11-28T15:05:40-0500",5332600728, (Bushwick@Morgan L),1200,BIG Room in 3BR/1.5BA near Morgan L | 20mins to Manhatt! | DEC1,-73.931291,130,40.701573,/brk/roo/5332600728.html,8,"2015-11-25T21:10:58-0500,2015-11-25T21:10:58-0500,2015-11-28T15:05:40-0500",Nov 28,,18,0
"2015-11-25T20:53:43-0500,2015-11-25T20:53:43-0500,2015-11-28T15:05:51-0500",5332586384, (Bushwick@Morgan L),1200,BIG Room in 3BR/1.5BA near Morgan L | 20mins to Manhatt! | DEC1,-73.931291,130,40.701573,/brk/roo/5332586384.html,8,"2015-11-25T20:53:43-0500,2015-11-25T20:53:43-0500,2015-11-28T15:05:51-0500",Nov 28,,18,0
"2015-11-28T19:27:43-0500,2015-11-28T19:27:43-0500",5336200882, (Crown Heights/ Prospect Heights),1000,Rooms available in Prospect Heights area in a 4 Bedroom 3 Full Bath,-73.952837,,40.673478,/brk/roo/5336200882.html,24,"2015-11-28T19:27:43-0500,2015-11-28T19:27:43-0500",Nov 28,,25,0
"2015-11-12T11:22:49-0500,2015-11-12T11:22:49-0500,2015-11-28T19:29:40-0500",5312379271, (Williamsburg bedstuy),825,â˜¼ BEDSTUY BROOKLYN! ROOMMATES NEEDED â˜¼,,140,,/brk/roo/5312379271.html,6,"2015-11-12T11:22:49-0500,2015-11-12T11:22:49-0500,2015-11-28T19:29:40-0500",Nov 28,,7,0
"2015-11-28T19:25:02-0500,2015-11-28T19:25:02-0500",5336197905," (Brooklyn College, Glenwood/E 35th)",,ROOM FOR SINGLE FEMALE - $200/wk,-73.942945,,40.635027,/brk/roo/5336197905.html,9,"2015-11-28T19:25:02-0500,2015-11-28T19:25:02-0500",Nov 28,,14,0
"2015-11-24T08:06:08-0500,2015-11-24T08:06:08-0500,2015-11-28T15:05:32-0500",5330067263, (Bushwick@Morgan L),1200,SWEET BR in Cool Hood | 5blks from MORGAN L | 20 mins To City,-73.930714,,40.702163,/brk/roo/5330067263.html,7,"2015-11-24T08:06:08-0500,2015-11-24T08:06:08-0500,2015-11-28T15:05:32-0500",Nov 28,,15,0
"2015-11-12T19:32:34-0500,2015-11-12T19:32:34-0500,2015-11-28T19:30:06-0500",5313217177, (bedstuy Crown heights williamsburg bushwick clinton hill),795,brooklyn rooms for rent â˜… NO FEE â˜… Bushwick bestuy clinton hill a,-73.942807,150,40.692358,/brk/roo/5313217177.html,8,"2015-11-12T19:32:34-0500,2015-11-12T19:32:34-0500,2015-11-28T19:30:06-0500",Nov 28,,2,0
"2015-11-15T12:57:23-0500,2015-11-15T12:57:23-0500,2015-11-28T19:30:38-0500",5317063564, (bedstuy e williamsburg),795,Stunning Rooftop - Gym - Real Pictures - Brooklyn,-73.918376,130,40.68164,/brk/roo/5317063564.html,9,"2015-11-15T12:57:23-0500,2015-11-15T12:57:23-0500,2015-11-28T19:30:38-0500",Nov 28,,14,0
"2015-11-19T14:46:00-0500,2015-11-19T14:46:00-0500,2015-11-28T19:31:04-0500",5323262671, (bedstuy bushwick),800,Spacious Luxury Rooms,,140,,/brk/roo/5323262671.html,7,"2015-11-19T14:46:00-0500,2015-11-19T14:46:00-0500,2015-11-28T19:31:04-0500",Nov 28,,13,0
"2015-11-05T13:35:23-0500,2015-11-05T13:35:23-0500,2015-11-28T19:30:14-0500",5301834430, (bedstuy bushwick),800,Spacious Luxury Rooms near williamsburg - J train -,,140,,/brk/roo/5301834430.html,7,"2015-11-05T13:35:23-0500,2015-11-05T13:35:23-0500,2015-11-28T19:30:14-0500",Nov 28,,26,0
"2015-11-18T17:58:02-0500,2015-11-18T17:58:02-0500,2015-11-28T19:30:27-0500",5322184461, (bedstuy bushwick),800,Spacious Luxury Rooms,,140,,/brk/roo/5322184461.html,7,"2015-11-18T17:58:02-0500,2015-11-18T17:58:02-0500,2015-11-28T19:30:27-0500",Nov 28,,13,0
"2015-11-18T17:58:05-0500,2015-11-18T17:58:05-0500,2015-11-28T19:31:13-0500",5322184537, (bedstuy e williamsburg),850,NEAR THE A & C - HURRY! Stunning Rooftop - Gym -,,130,,/brk/roo/5322184537.html,9,"2015-11-18T17:58:05-0500,2015-11-18T17:58:05-0500,2015-11-28T19:31:13-0500",Nov 28,,12,0
"2015-11-24T05:58:54-0500,2015-11-24T05:58:54-0500,2015-11-28T18:05:09-0500",5330004388,,640,Cozy 6 BDRM/ 2 BATH in BedStuy,-73.9211,,40.6784,/brk/roo/5330004388.html,6,"2015-11-24T05:58:54-0500,2015-11-24T05:58:54-0500,2015-11-28T18:05:09-0500",Nov 28,,22,0
"2015-11-24T06:02:57-0500,2015-11-24T06:02:57-0500,2015-11-28T18:05:18-0500",5330005675,,640,Cozy 6 BDRM/ 2 BATH in,-73.9211,,40.6784,/brk/roo/5330005675.html,6,"2015-11-24T06:02:57-0500,2015-11-24T06:02:57-0500,2015-11-28T18:05:18-0500",Nov 28,,22,0
"2015-11-24T05:46:21-0500,2015-11-24T05:46:21-0500,2015-11-28T18:05:27-0500",5330000591,,875,The Best Apartment Share In Bush wick!!!,-73.9496,,40.6794,/brk/roo/5330000591.html,7,"2015-11-24T05:46:21-0500,2015-11-24T05:46:21-0500,2015-11-28T18:05:27-0500",Nov 28,,17,0
"2015-11-22T09:07:16-0500,2015-11-22T09:07:16-0500,2015-11-28T18:21:33-0500",5327154504, (Prospect Lefferts Gardens),1300,Large bedroom in two BR apt - roommate only in apt 2x a month,-73.956958,,40.66118,/brk/roo/5327154504.html,4,"2015-11-22T09:07:16-0500,2015-11-22T09:07:16-0500,2015-11-28T18:21:33-0500",Nov 28,,6,0
"2015-11-16T10:12:23-0500,2015-11-16T10:12:23-0500,2015-11-28T18:05:52-0500",5318214429, (Bushwick),899,"Rad Pad-Share this 5 bedroom, 2 bath apartment",-73.9274,,40.6907,/brk/roo/5318214429.html,17,"2015-11-16T10:12:23-0500,2015-11-16T10:12:23-0500,2015-11-28T18:05:52-0500",Nov 28,,14,0
"2015-11-24T06:03:37-0500,2015-11-24T06:03:37-0500,2015-11-28T18:04:37-0500",5330005883,,640,Cozy 6 BDRM/ 2 BATH in BedStuy,-73.9211,,40.6784,/brk/roo/5330005883.html,6,"2015-11-24T06:03:37-0500,2015-11-24T06:03:37-0500,2015-11-28T18:04:37-0500",Nov 28,,22,0
"2015-11-10T12:16:46-0500,2015-11-10T12:16:46-0500,2015-11-28T18:06:00-0500",5309300399, (Bushwick),995,Exquisitely Renovated Bushwick Townhouse,-73.9436,,40.7012,/brk/roo/5309300399.html,0,"2015-11-10T12:16:46-0500,2015-11-10T12:16:46-0500,2015-11-28T18:06:00-0500",Nov 28,,26,0
"2015-11-22T12:35:09-0500,2015-11-22T12:35:09-0500,2015-11-28T18:05:44-0500",5327424253, (Bushwick),1125,Room For Rent Bushwick 1125$/month,-73.914868,132,40.701602,/brk/roo/5327424253.html,14,"2015-11-22T12:35:09-0500,2015-11-22T12:35:09-0500,2015-11-28T18:05:44-0500",Nov 28,,32,0
"2015-11-12T18:47:12-0500,2015-11-12T18:47:12-0500,2015-11-28T18:06:09-0500",5313160078,,750,Gorgeous Sunny Room w/ Backyard Access,-73.9211,,40.6784,/brk/roo/5313160078.html,7,"2015-11-12T18:47:12-0500,2015-11-12T18:47:12-0500,2015-11-28T18:06:09-0500",Nov 28,,12,0
"2015-11-03T16:07:35-0500,2015-11-03T16:07:35-0500,2015-11-28T18:06:19-0500",5298904895,,750,New BedStuy Share for $750,-73.9274,,40.6907,/brk/roo/5298904895.html,7,"2015-11-03T16:07:35-0500,2015-11-03T16:07:35-0500,2015-11-28T18:06:19-0500",Nov 28,,17,0
"2015-11-28T22:37:15-0500,2015-11-28T22:37:15-0500",5336382330, (BEDSTUY),640,BRAND NEW LARGE ROOM*****2BATHS***LAUNDRY * ROOF & MORE !!,-73.911374,,40.68098,/brk/roo/5336382330.html,8,"2015-11-28T22:37:15-0500,2015-11-28T22:37:15-0500",Nov 28,,16,0
"2015-11-28T23:16:57-0500,2015-11-28T23:16:57-0500,2015-11-28T23:16:58-0500",5336412754, (Crown Heights),1000,Room for Rent,,204,,/brk/roo/5336412754.html,0,"2015-11-28T23:16:57-0500,2015-11-28T23:16:57-0500,2015-11-28T23:16:58-0500",Nov 28,,1,0
"2015-11-16T14:30:58-0500,2015-11-16T14:30:58-0500,2015-11-28T23:15:29-0500",5318719711, (E. WILLIAMBURG/BUSHWICK),850,BRIGHT & SUNNY ROOM* NEWLY RENO* 2BATHS***LAUNDRY * BEST LOCATION!!,-73.91862,,40.691808,/brk/roo/5318719711.html,7,"2015-11-16T14:30:58-0500,2015-11-16T14:30:58-0500,2015-11-28T23:15:29-0500",Nov 28,,22,0
"2015-11-28T23:20:25-0500,2015-11-28T23:20:25-0500",5336415178," (Brooklyn, Bed stuy)",900,17 X 12 PRIVATE ROOM FOR 1 MORE ROOM MATE IN 3 BEDRM BEDSTUY APARTMENT,-73.918076,,40.684478,/brk/roo/5336415178.html,10,"2015-11-28T23:20:25-0500,2015-11-28T23:20:25-0500",Nov 28,,1,0
"2015-11-23T13:10:02-0500,2015-11-23T13:10:02-0500,2015-11-28T23:18:42-0500",5328958126, (BUSHWICK),1050,Great 3 bedr nicely decorated. gorgeous HARDWOOD FLOORS,-73.919621,,40.693134,/brk/roo/5328958126.html,9,"2015-11-23T13:10:02-0500,2015-11-23T13:10:02-0500,2015-11-28T23:18:42-0500",Nov 28,,20,0
"2015-11-16T14:56:26-0500,2015-11-16T14:56:26-0500,2015-11-28T23:19:02-0500",5318769599, (CROWN HEIGHTS),775,WOW ***LARGE ROOM***2BATHS***EXPOSE BRICK** SUPER LOCATION* HURRY!!,-73.90382,,40.675379,/brk/roo/5318769599.html,11,"2015-11-16T14:56:26-0500,2015-11-16T14:56:26-0500,2015-11-28T23:19:02-0500",Nov 28,,20,0
"2015-11-28T17:07:01-0500,2015-11-28T17:07:01-0500",5336021421, (Bushwick),900,Huge room w/ big closet. All utilities + Internet included. No fee.,-73.917217,,40.692158,/brk/roo/5336021421.html,3,"2015-11-28T17:07:01-0500,2015-11-28T17:07:01-0500",Nov 28,,5,0
"2015-11-28T17:14:14-0500,2015-11-28T17:14:14-0500",5336031799, (Bushwick),950,Rooms! Coffee Shop at your Doorstep!,-73.916824,,40.688747,/brk/roo/5336031799.html,10,"2015-11-28T17:14:14-0500,2015-11-28T17:14:14-0500",Nov 28,,18,0
"2015-11-20T21:05:48-0500,2015-11-20T21:05:48-0500,2015-11-28T17:09:24-0500",5325334218, (Weirfield),777,NYU masters student*&* seeking like minded roommates,-73.914642,,40.687507,/brk/roo/5325334218.html,5,"2015-11-20T21:05:48-0500,2015-11-20T21:05:48-0500,2015-11-28T17:09:24-0500",Nov 28,,60,0
"2015-11-28T17:14:31-0500,2015-11-28T17:14:31-0500",5336032203, (Bushwick),750,Rooms! Huge Outdoor Space! Dishwasher!,-73.911518,,40.681712,/brk/roo/5336032203.html,7,"2015-11-28T17:14:31-0500,2015-11-28T17:14:31-0500",Nov 28,,18,0
"2015-11-28T17:16:26-0500,2015-11-28T17:16:26-0500",5336034991, (fort greene),,small room for saving money,-73.9644,,40.679,/brk/roo/5336034991.html,0,"2015-11-28T17:16:26-0500,2015-11-28T17:16:26-0500",Nov 28,,6,0
"2015-11-26T11:22:46-0500,2015-11-26T11:22:46-0500,2015-11-28T23:18:24-0500",5333041808, (EAST WILLIAMSBURG),900,"Great LOCATION, Morgan L. ALL BILLS INCLUDED, FURNISHED",-73.936982,,40.70191,/brk/roo/5333041808.html,7,"2015-11-26T11:22:46-0500,2015-11-26T11:22:46-0500,2015-11-28T23:18:24-0500",Nov 28,,29,0
"2015-11-28T17:09:40-0500,2015-11-28T17:09:40-0500",5336025205, (Bushwick),950,Large room w/huge closet. All utilities and Internet included. No fee,-73.91711,,40.692256,/brk/roo/5336025205.html,6,"2015-11-28T17:09:40-0500,2015-11-28T17:09:40-0500",Nov 28,,5,0
"2015-11-28T17:19:38-0500,2015-11-28T17:19:38-0500",5336039628, (Dimas park),275,Basement apt for rent,,,,/brk/roo/5336039628.html,0,"2015-11-28T17:19:38-0500,2015-11-28T17:19:38-0500",Nov 28,,6,0
"2015-11-28T17:19:59-0500,2015-11-28T17:19:59-0500",5336040138, (Brooklyn),,"Large Room In Sunset Park, $850/mo.",,,,/brk/roo/5336040138.html,3,"2015-11-28T17:19:59-0500,2015-11-28T17:19:59-0500",Nov 28,,8,0
"2015-11-28T14:43:52-0500,2015-11-28T14:43:52-0500",5335789540, (Bushwick@Morgan LLLL),1200,BIIIG Room Avai ASAP! in 3BR/2BA+Yard | Near MORGAN LLLLL,-73.9298,,40.704305,/brk/roo/5335789540.html,9,"2015-11-28T14:43:52-0500,2015-11-28T14:43:52-0500",Nov 28,,16,0
"2015-11-21T12:42:46-0500,2015-11-21T12:42:46-0500,2015-11-28T15:06:11-0500",5326080863, (Bushwick@Morgan L),1100,Roommate Needed ASAP!!! | Prime Bushwick | 5 blks from MORGAN LLL,-73.931291,,40.701573,/brk/roo/5326080863.html,7,"2015-11-21T12:42:46-0500,2015-11-21T12:42:46-0500,2015-11-28T15:06:11-0500",Nov 28,,16,0
"2015-11-20T19:28:57-0500,2015-11-20T19:28:57-0500,2015-11-28T15:06:20-0500",5325225979, (Bushwick@Morgan L),1100,Roommate Needed ASAP!!! | Prime Bushwick | 5 blks from MORGAN LLL,-73.931291,,40.701573,/brk/roo/5325225979.html,7,"2015-11-20T19:28:57-0500,2015-11-20T19:28:57-0500,2015-11-28T15:06:20-0500",Nov 28,,16,0
"2015-11-28T15:06:18-0500,2015-11-28T15:06:18-0500",5335828710, (Clarkson Avenue),1250,"BIG ROOM IN CREATIVE 2 BR. APT., ALL UTILITIES & CLEANING INCL.",-73.958244,850,40.654955,/brk/roo/5335828710.html,19,"2015-11-28T15:06:18-0500,2015-11-28T15:06:18-0500",Nov 28,,17,0
"2015-11-04T12:05:51-0500,2015-11-04T12:05:51-0500,2015-11-28T15:07:45-0500",5300064271, (Williamsburg),1200,Room with your own backyard,-73.957488,,40.70908,/brk/roo/5300064271.html,3,"2015-11-04T12:05:51-0500,2015-11-04T12:05:51-0500,2015-11-28T15:07:45-0500",Nov 28,,11,0
"2015-11-28T19:36:32-0500,2015-11-28T19:36:32-0500",5336210670, (East Williamsburg),850,Great neighborhood Apt 15 Minutes from Manhattan,,,,/brk/roo/5336210670.html,7,"2015-11-28T19:36:32-0500,2015-11-28T19:36:32-0500",Nov 28,,10,0
"2015-11-28T15:00:11-0500,2015-11-28T15:00:11-0500",5335818115, (Bushwick@Dekalb L-Knickerbocker M),850,Cute Room Avai ASAP!!!!! | Just 1 Block From Dekalb LLLLLL,-73.919323,,40.701831,/brk/roo/5335818115.html,9,"2015-11-28T15:00:11-0500,2015-11-28T15:00:11-0500",Nov 28,,35,0
"2015-11-28T15:15:02-0500,2015-11-28T15:15:02-0500",5335843592, (BEDSTUY),640,WOW****HUGE LARGE ROOM*****2BATHS****LAUNDRY* ROOF & MORE!!,-73.911374,,40.68098,/brk/roo/5335843592.html,8,"2015-11-28T15:15:02-0500,2015-11-28T15:15:02-0500",Nov 28,,23,0
"2015-11-12T11:19:13-0500,2015-11-12T11:19:13-0500,2015-11-28T19:31:27-0500",5312372554, (bedstuy e williamsburg border),850,Awesome new Bedstuy room for rent near trains,-73.945735,,40.692304,/brk/roo/5312372554.html,4,"2015-11-12T11:19:13-0500,2015-11-12T11:19:13-0500,2015-11-28T19:31:27-0500",Nov 28,,6,0
"2015-11-22T09:31:05-0500,2015-11-22T09:31:05-0500,2015-11-28T17:00:53-0500",5327176950, (Flatbush/Ditmas Park),700,Save $$$ Live Here Hassle-Free!,-73.9536,,40.638422,/brk/roo/5327176950.html,7,"2015-11-22T09:31:05-0500,2015-11-22T09:31:05-0500,2015-11-28T17:00:53-0500",Nov 28,,19,0
"2015-11-12T19:32:37-0500,2015-11-12T19:32:37-0500,2015-11-28T19:32:23-0500",5313217247, (bedstuy e williamsburg),800,bedstuy chilled roommates wanted for new apartment,-73.918247,,40.684673,/brk/roo/5313217247.html,5,"2015-11-12T19:32:37-0500,2015-11-12T19:32:37-0500,2015-11-28T19:32:23-0500",Nov 28,,4,0
"2015-11-18T17:57:59-0500,2015-11-18T17:57:59-0500,2015-11-28T19:31:46-0500",5322184376, (clinton hill bedstuy),850,Make this bedstuy apt your new home,-73.95541,145,40.690908,/brk/roo/5322184376.html,6,"2015-11-18T17:57:59-0500,2015-11-18T17:57:59-0500,2015-11-28T19:31:46-0500",Nov 28,,7,0
"2015-11-05T13:35:19-0500,2015-11-05T13:35:19-0500,2015-11-28T19:32:51-0500",5301834292, (Clinton hill bedstuy),875,Bright & Sunny Room in new apartment,,,,/brk/roo/5301834292.html,5,"2015-11-05T13:35:19-0500,2015-11-05T13:35:19-0500,2015-11-28T19:32:51-0500",Nov 28,,2,0
"2015-11-19T11:26:26-0500,2015-11-19T11:26:26-0500,2015-11-28T19:37:38-0500",5322927981, (Bushwick),775,Do Laundry at home + chill on your roof top ^^A/C for the summer!,-73.914642,,40.687507,/brk/roo/5322927981.html,6,"2015-11-19T11:26:26-0500,2015-11-19T11:26:26-0500,2015-11-28T19:37:38-0500",Nov 28,,62,0
"2015-11-22T12:52:53-0500,2015-11-22T12:52:53-0500,2015-11-28T19:37:54-0500",5327451985, (Fort Greene),1600,Roommate Needed! Charming Sunny Luxury Room *No Fee,-73.978211,,40.689128,/brk/roo/5327451985.html,6,"2015-11-22T12:52:53-0500,2015-11-22T12:52:53-0500,2015-11-28T19:37:54-0500",Nov 28,,10,0
"2015-11-22T12:49:59-0500,2015-11-22T12:49:59-0500,2015-11-28T19:38:06-0500",5327447366, (Fort Greene),1750,Stunning View! Luxury Room w/Private Bath .No Fee. *Rooftop*Gym,-73.979037,,40.688572,/brk/roo/5327447366.html,6,"2015-11-22T12:49:59-0500,2015-11-22T12:49:59-0500,2015-11-28T19:38:06-0500",Nov 28,,10,0
"2015-11-19T11:00:17-0500,2015-11-19T11:00:17-0500,2015-11-28T19:39:37-0500",5322885496, (Weirfield),775,"***This is the one, Amazing Roommate & Amazing Place",-73.914642,,40.687507,/brk/roo/5322885496.html,7,"2015-11-19T11:00:17-0500,2015-11-19T11:00:17-0500,2015-11-28T19:39:37-0500",Nov 28,,62,0
"2015-11-16T15:40:24-0500,2015-11-16T15:40:24-0500,2015-11-28T18:06:20-0500",5318852720, (Crown Heights),999,- $1275 - 4 Bed / 3 Bath - Triplex with Roof-deck ! PSHH!,-73.9274,,40.6907,/brk/roo/5318852720.html,21,"2015-11-16T15:40:24-0500,2015-11-16T15:40:24-0500,2015-11-28T18:06:20-0500",Nov 28,,28,0
"2015-11-19T11:41:15-0500,2015-11-19T11:41:15-0500,2015-11-28T18:07:38-0500",5322952454,,640,Sunny AMAZING Room For Rent Backyard Access!,-73.9496,,40.6794,/brk/roo/5322952454.html,0,"2015-11-19T11:41:15-0500,2015-11-19T11:41:15-0500,2015-11-28T18:07:38-0500",Nov 28,,18,0
"2015-11-21T16:25:19-0500,2015-11-21T16:25:19-0500,2015-11-28T18:06:56-0500",5326464961,,640,Awesome Room for Rent with Amenities,,,,/brk/roo/5326464961.html,9,"2015-11-21T16:25:19-0500,2015-11-21T16:25:19-0500,2015-11-28T18:06:56-0500",Nov 28,,11,0
"2015-11-23T11:03:15-0500,2015-11-23T11:03:15-0500,2015-11-28T18:19:02-0500",5328709651,,640,Cozy 6 BDRM/ 2 BATH in BedStuy,-73.9211,,40.6784,/brk/roo/5328709651.html,6,"2015-11-23T11:03:15-0500,2015-11-23T11:03:15-0500,2015-11-28T18:19:02-0500",Nov 28,,22,0
"2015-11-08T07:35:43-0500,2015-11-08T07:35:43-0500,2015-11-28T18:03:39-0500",5305868898, (sheepsheadbay/gravesend/midwood),700,ATTN MED STUDENTS/INTERNS! 1 Block to Q Train Convenient to NYC,-73.956667,1,40.598941,/brk/roo/5305868898.html,6,"2015-11-08T07:35:43-0500,2015-11-08T07:35:43-0500,2015-11-28T18:03:39-0500",Nov 28,,24,0
"2015-11-26T02:08:20-0500,2015-11-26T02:08:20-0500,2015-11-29T00:07:52-0500",5332778365, (Knickerbocker),2500,2BR with home office BUSHWICK,-73.9274,,40.6907,/brk/roo/5332778365.html,4,"2015-11-26T02:08:20-0500,2015-11-26T02:08:20-0500,2015-11-29T00:07:52-0500",Nov 28,,3,0
"2015-11-23T11:04:13-0500,2015-11-23T11:04:13-0500,2015-11-28T18:17:33-0500",5328711426,,640,Cozy 6 BDRM/ 2 BATH in BedStuy,-73.9211,,40.6784,/brk/roo/5328711426.html,6,"2015-11-23T11:04:13-0500,2015-11-23T11:04:13-0500,2015-11-28T18:17:33-0500",Nov 28,,22,0
"2015-11-28T23:26:25-0500,2015-11-28T23:26:25-0500",5336419427, (Crown Heights),995,obscenely large triplex with private roof deck,-73.9496,,40.6794,/brk/roo/5336419427.html,15,"2015-11-28T23:26:25-0500,2015-11-28T23:26:25-0500",Nov 28,,27,0
"2015-11-28T17:11:31-0500,2015-11-28T17:11:31-0500",5336027889, (Bushwick),950,Huge room. All utilities + Internet included. No fee.,-73.917239,,40.692191,/brk/roo/5336027889.html,3,"2015-11-28T17:11:31-0500,2015-11-28T17:11:31-0500",Nov 28,,3,0
"2015-11-18T11:33:51-0500,2015-11-18T11:33:51-0500,2015-11-28T23:27:10-0500",5321486151, (Bushwick),899,Bushwick Townhouse Redone - Apartment seeking Roomies,-73.9274,,40.6907,/brk/roo/5321486151.html,15,"2015-11-18T11:33:51-0500,2015-11-18T11:33:51-0500,2015-11-28T23:27:10-0500",Nov 28,,12,0
"2015-11-24T18:03:53-0500,2015-11-24T18:03:53-0500,2015-11-28T17:15:43-0500",5331006366, (Bedford Stuyvesant),900,MEDIUM PRIVATE ROOM w/WiFi,,,,/brk/roo/5331006366.html,12,"2015-11-24T18:03:53-0500,2015-11-24T18:03:53-0500,2015-11-28T17:15:43-0500",Nov 28,,30,0
"2015-11-22T17:16:47-0500,2015-11-22T17:16:47-0500,2015-11-28T17:16:23-0500",5327851406, (Crown Heights),900,PRIVATE ROOM & WiFi,,,,/brk/roo/5327851406.html,12,"2015-11-22T17:16:47-0500,2015-11-22T17:16:47-0500,2015-11-28T17:16:23-0500",Nov 28,,28,0
"2015-11-24T18:06:52-0500,2015-11-24T18:06:52-0500,2015-11-28T17:16:54-0500",5331010396, (Crown Heights),900,MEDIUM PRIVATE ROOM w/WiFi,,,,/brk/roo/5331010396.html,12,"2015-11-24T18:06:52-0500,2015-11-24T18:06:52-0500,2015-11-28T17:16:54-0500",Nov 28,,30,0
"2015-11-15T19:43:28-0500,2015-11-15T19:43:28-0500,2015-11-28T17:19:21-0500",5317625786,,,å¸ƒç¢Œå€« 13å¤§é“ 63è¡— å¤§å–®æˆ¿,-73.996,,40.6336,/brk/roo/5317625786.html,0,"2015-11-15T19:43:28-0500,2015-11-15T19:43:28-0500,2015-11-28T17:19:21-0500",Nov 28,,3,0
"2015-11-28T15:59:33-0500,2015-11-28T15:59:33-0500",5335916795,,,Nice size room $750,,,,/brk/roo/5335916795.html,0,"2015-11-28T15:59:33-0500,2015-11-28T15:59:33-0500",Nov 28,,1,0
"2015-11-21T18:23:33-0500,2015-11-21T18:23:33-0500,2015-11-28T17:18:55-0500",5326630138," (Brooklyn College, Glenwood/E 35th)",,ROOM FOR SINGLE FEMALE - $200/wk,-73.942945,,40.635027,/brk/roo/5326630138.html,9,"2015-11-21T18:23:33-0500,2015-11-21T18:23:33-0500,2015-11-28T17:18:55-0500",Nov 28,,14,0
"2015-11-10T14:10:31-0500,2015-11-10T14:10:31-0500,2015-11-28T17:14:24-0500",5309523846, (Bedstuy),640,November 15th Move In Ready To Move In Now,,,,/brk/roo/5309523846.html,17,"2015-11-10T14:10:31-0500,2015-11-10T14:10:31-0500,2015-11-28T17:14:24-0500",Nov 28,,11,0
"2015-11-22T17:19:30-0500,2015-11-22T17:19:30-0500,2015-11-28T17:18:25-0500",5327855183, (Bedford Stuyvesant),900,MEDIUM PRIVATE ROOM w/WiFi,,,,/brk/roo/5327855183.html,12,"2015-11-22T17:19:30-0500,2015-11-22T17:19:30-0500,2015-11-28T17:18:25-0500",Nov 28,,29,0
"2015-11-28T15:11:31-0500,2015-11-28T15:11:31-0500",5335837677, (Crown Heights),850,PRIVATE ROOMS AVAILABLE,-73.9367,,40.67,/brk/roo/5335837677.html,0,"2015-11-28T15:11:31-0500,2015-11-28T15:11:31-0500",Nov 28,,1,0
"2015-11-28T15:25:53-0500,2015-11-28T15:25:53-0500",5335861713, (1229 Bedford Ave),850,Large Room (15'x11') for Rent in Bed-Stuy,-73.953484,,40.681218,/brk/roo/5335861713.html,0,"2015-11-28T15:25:53-0500,2015-11-28T15:25:53-0500",Nov 28,,17,0
"2015-11-15T11:30:59-0500,2015-11-15T11:30:59-0500,2015-11-28T15:29:47-0500",5316937887,,,"$600å¥½åŒº,å…¨åŒ…Nice Room for Rent $600(dyker heihgts br",-73.996,,40.6336,/brk/roo/5316937887.html,0,"2015-11-15T11:30:59-0500,2015-11-15T11:30:59-0500,2015-11-28T15:29:47-0500",Nov 28,,3,0
"2015-11-25T00:17:31-0500,2015-11-25T00:17:31-0500,2015-11-28T15:36:19-0500",5331375552, (Flatbush),,Rooms available now,,,,/brk/roo/5331375552.html,6,"2015-11-25T00:17:31-0500,2015-11-25T00:17:31-0500,2015-11-28T15:36:19-0500",Nov 28,,6,0
"2015-11-15T11:52:59-0500,2015-11-15T11:52:59-0500,2015-11-28T15:32:50-0500",5316968704,,,å¸ƒç¢Œå€« 13å¤§é“ 63è¡— å¤§å–®æˆ¿,-73.996,,40.6336,/brk/roo/5316968704.html,0,"2015-11-15T11:52:59-0500,2015-11-15T11:52:59-0500,2015-11-28T15:32:50-0500",Nov 28,,3,0
"2015-11-28T15:32:20-0500,2015-11-28T15:32:20-0500",5335872628, (310 Tompkins ave),875,Beautiful New 4BR/2BA private Roof access steps to Bedford G train,-73.944683,,40.687218,/brk/roo/5335872628.html,15,"2015-11-28T15:32:20-0500,2015-11-28T15:32:20-0500",Nov 28,,45,0
"2015-11-28T19:45:29-0500,2015-11-28T19:45:29-0500",5336220361, (Bushwick),795,No more walking to the laundromat on those cold winter days,-73.905268,,40.691364,/brk/roo/5336220361.html,14,"2015-11-28T19:45:29-0500,2015-11-28T19:45:29-0500",Nov 28,,23,0
"2015-11-28T15:08:44-0500,2015-11-28T15:08:44-0500",5335832897, (Bushwick),899,Searching for roomies in a HUGE 4 Br with Deck off Myrtle JMZ,-73.932452,,40.695493,/brk/roo/5335832897.html,5,"2015-11-28T15:08:44-0500,2015-11-28T15:08:44-0500",Nov 28,,14,0
"2015-11-16T10:41:21-0500,2015-11-16T10:41:21-0500,2015-11-28T23:33:29-0500",5318264986, (bed stuy),800,PET FRIENDLY rooms for rent near train station and gyms,,,,/brk/roo/5318264986.html,7,"2015-11-16T10:41:21-0500,2015-11-16T10:41:21-0500,2015-11-28T23:33:29-0500",Nov 28,,3,0
"2015-11-28T19:45:45-0500,2015-11-28T19:45:45-0500",5336220675, (WILLIAMSBURG),925,LARGE BEDROOM IN LOFT,-73.9436,165,40.7012,/brk/roo/5336220675.html,3,"2015-11-28T19:45:45-0500,2015-11-28T19:45:45-0500",Nov 28,,6,0
"2015-11-10T13:52:52-0500,2015-11-10T13:52:52-0500,2015-11-28T19:41:25-0500",5309489530, (Fort Greene),1750,Stunning View! Luxury Room w/Private Bath .No Fee. *Rooftop*Gym,-73.979144,,40.688481,/brk/roo/5309489530.html,7,"2015-11-10T13:52:52-0500,2015-11-10T13:52:52-0500,2015-11-28T19:41:25-0500",Nov 28,,10,0
"2015-10-30T15:37:09-0400,2015-10-30T15:37:09-0400,2015-11-28T18:08:21-0500",5292874448,,640,Large Room for Rent in BedStuy,-73.9211,,40.6784,/brk/roo/5292874448.html,9,"2015-10-30T15:37:09-0400,2015-10-30T15:37:09-0400,2015-11-28T18:08:21-0500",Nov 28,,16,0
"2015-11-28T19:47:18-0500,2015-11-28T19:47:18-0500",5336222339, (Brooklyn),,Room for Rent ($700),,,,/brk/roo/5336222339.html,0,"2015-11-28T19:47:18-0500,2015-11-28T19:47:18-0500",Nov 28,,21,0
"2015-11-19T11:05:57-0500,2015-11-19T11:05:57-0500,2015-11-28T19:43:38-0500",5322894720, (Bushwick),776,"Get a gorgeous view, tons of Sunlight, and a brand new home",-73.914642,,40.687507,/brk/roo/5322894720.html,5,"2015-11-19T11:05:57-0500,2015-11-19T11:05:57-0500,2015-11-28T19:43:38-0500",Nov 28,,63,0
"2015-11-28T19:33:41-0500,2015-11-28T19:33:41-0500",5336207530, (BedStuy),850,"Modern and New Space. Dishwasher, Shared Roof & Laundry",-73.941785,,40.687228,/brk/roo/5336207530.html,11,"2015-11-28T19:33:41-0500,2015-11-28T19:33:41-0500",Nov 28,,6,0
"2015-11-05T21:35:29-0500,2015-11-05T21:35:29-0500,2015-11-28T18:20:52-0500",5302550942,,640,Bedford-Stuyvesant Beauty for $640 per month,,,,/brk/roo/5302550942.html,6,"2015-11-05T21:35:29-0500,2015-11-05T21:35:29-0500,2015-11-28T18:20:52-0500",Nov 28,,19,0
"2015-11-23T11:01:35-0500,2015-11-23T11:01:35-0500,2015-11-28T18:16:47-0500",5328706466,,640,Cozy 6 BDRM/ 2 BATH in BedStuy,-73.9211,,40.6784,/brk/roo/5328706466.html,6,"2015-11-23T11:01:35-0500,2015-11-23T11:01:35-0500,2015-11-28T18:16:47-0500",Nov 28,,22,0
"2015-11-18T09:57:39-0500,2015-11-18T09:57:39-0500,2015-11-28T18:09:15-0500",5321317363, (Bushwick),899,"Rad Pad-Share this 5 bedroom, 2.5 bath apartment",-73.9274,,40.6907,/brk/roo/5321317363.html,13,"2015-11-18T09:57:39-0500,2015-11-18T09:57:39-0500,2015-11-28T18:09:15-0500",Nov 28,,12,0
"2015-11-28T18:14:51-0500,2015-11-28T18:14:51-0500",5336113949, (BUSHWICKSTUY),1200,SUBLET: CLEAN COSY BEDROOM AVAILABLE IN TWO BEDROOM SHARE,-73.934417,,40.694821,/brk/roo/5336113949.html,4,"2015-11-28T18:14:51-0500,2015-11-28T18:14:51-0500",Nov 28,,13,0
"2015-11-21T13:38:58-0500,2015-11-21T13:38:58-0500,2015-11-28T18:10:06-0500",5326183749,,825,Only Two Left Dec. 1St. I have your keys to your brand new pad!,,,,/brk/roo/5326183749.html,6,"2015-11-21T13:38:58-0500,2015-11-21T13:38:58-0500,2015-11-28T18:10:06-0500",Nov 28,,17,0
"2015-11-18T11:33:02-0500,2015-11-18T11:33:02-0500,2015-11-28T18:09:06-0500",5321484476, (Bushwick),899,"New Renovation, New Appliances - Be the First !",-73.9274,,40.6907,/brk/roo/5321484476.html,18,"2015-11-18T11:33:02-0500,2015-11-18T11:33:02-0500,2015-11-28T18:09:06-0500",Nov 28,,12,0
"2015-11-28T18:08:21-0500,2015-11-28T18:08:21-0500",5336105592, (Bushwick),900,P Gorgeous Apartment Share - Lets check it out today !,-73.9274,,40.6907,/brk/roo/5336105592.html,21,"2015-11-28T18:08:21-0500,2015-11-28T18:08:21-0500",Nov 28,,14,0
"2015-11-24T23:08:17-0500,2015-11-24T23:08:17-0500,2015-11-28T18:11:46-0500",5331327258, (Greenpoint),1299,The Elegance of Greenpoint,-73.9498,,40.7272,/brk/roo/5331327258.html,7,"2015-11-24T23:08:17-0500,2015-11-24T23:08:17-0500,2015-11-28T18:11:46-0500",Nov 28,,19,0
"2015-11-07T16:08:52-0500,2015-11-07T16:08:52-0500,2015-11-28T23:31:16-0500",5305220182, (Bushwick),995,The Grand Bushwick Townhouse,-73.9498,,40.7272,/brk/roo/5305220182.html,14,"2015-11-07T16:08:52-0500,2015-11-07T16:08:52-0500,2015-11-28T23:31:16-0500",Nov 28,,13,0
"2015-11-28T23:18:20-0500,2015-11-28T23:18:20-0500",5336413745, (CROWN HEIGHTS),750,WOW ***HUGE ROOM* EXPOSE BRICK*** 2BATHS****BACK YARD * A MUST SEE,-73.90382,,40.675379,/brk/roo/5336413745.html,10,"2015-11-28T23:18:20-0500,2015-11-28T23:18:20-0500",Nov 28,,19,0
"2015-11-11T14:43:45-0500,2015-11-11T14:43:45-0500,2015-11-28T23:32:06-0500",5311181350, (Crown Heights),950,Blocks from Brower Park,-73.9367,,40.67,/brk/roo/5311181350.html,17,"2015-11-11T14:43:45-0500,2015-11-11T14:43:45-0500,2015-11-28T23:32:06-0500",Nov 28,,18,0
"2015-11-07T21:46:11-0500,2015-11-07T21:46:11-0500,2015-11-28T23:20:16-0500",5305617484, (east williamsburg),1015,"room in spacious bright apt, steps from flushing ave JMZ",-73.94042,,40.701077,/brk/roo/5305617484.html,15,"2015-11-07T21:46:11-0500,2015-11-07T21:46:11-0500,2015-11-28T23:20:16-0500",Nov 28,,16,0
"2015-11-28T17:16:16-0500,2015-11-28T17:16:16-0500",5336034763, (Crown Heights),850,Affordable Furnished Rooms,,,,/brk/roo/5336034763.html,0,"2015-11-28T17:16:16-0500,2015-11-28T17:16:16-0500",Nov 28,,1,0
"2015-11-28T17:28:37-0500,2015-11-28T17:28:37-0500",5336052242, (Bushwick),1100,Sunny room in beautiful bushwick loft,,250,,/brk/roo/5336052242.html,5,"2015-11-28T17:28:37-0500,2015-11-28T17:28:37-0500",Nov 28,,11,0
"2015-11-19T15:48:43-0500,2015-11-19T15:48:43-0500,2015-11-28T17:25:42-0500",5323362080, (Bushwick),875,Brand New Gorgeous Room Exposed Brick and Roof Access ASAP MOVE IN,,,,/brk/roo/5323362080.html,14,"2015-11-19T15:48:43-0500,2015-11-19T15:48:43-0500,2015-11-28T17:25:42-0500",Nov 28,,12,0
"2015-11-04T12:13:00-0500,2015-11-04T12:13:00-0500,2015-11-28T17:29:25-0500",5300078385,,1600,ðŸŒ â™»ðŸŒ MOVE IN BY THIS SUNDAY! RENTALS READY TO SEE NOW!,,,,/brk/roo/5300078385.html,0,"2015-11-04T12:13:00-0500,2015-11-04T12:13:00-0500,2015-11-28T17:29:25-0500",Nov 28,,12,0
"2015-11-28T17:24:04-0500,2015-11-28T17:24:04-0500",5336045917, (BRIGHTON BEACH),,ROOMS FOR RENT,,,,/brk/roo/5336045917.html,0,"2015-11-28T17:24:04-0500,2015-11-28T17:24:04-0500",Nov 28,,3,0
"2015-10-30T23:09:31-0400,2015-10-30T23:09:31-0400,2015-11-28T17:33:57-0500",5293433559, (New York City),850,Large Bright Bedroom Off Dekalb L $850,,,,/brk/roo/5293433559.html,4,"2015-10-30T23:09:31-0400,2015-10-30T23:09:31-0400,2015-11-28T17:33:57-0500",Nov 28,,3,0
"2015-11-09T12:21:37-0500,2015-11-09T12:21:37-0500,2015-11-28T17:34:01-0500",5307667453,,850,Large Bright Bedroom Off Dekalb L $850,-73.920332,,40.699936,/brk/roo/5307667453.html,4,"2015-11-09T12:21:37-0500,2015-11-09T12:21:37-0500,2015-11-28T17:34:01-0500",Nov 28,,3,0
"2015-11-28T17:33:19-0500,2015-11-28T17:33:19-0500",5336058791, (BedStuy),850,"Bedroom Available in Comfortable, Newly Renovated Four Bed, Two Bath",-73.93267,,40.684531,/brk/roo/5336058791.html,9,"2015-11-28T17:33:19-0500,2015-11-28T17:33:19-0500",Nov 28,,16,0
"2015-11-28T15:18:29-0500,2015-11-28T15:18:29-0500",5335849522, (CROWN HEIGHTS),750,BEAUTIFUL LARGE ROOM*******2BATHS*** PRIVATE BACK YARD* EXPOSE BRICK!!,,,,/brk/roo/5335849522.html,10,"2015-11-28T15:18:29-0500,2015-11-28T15:18:29-0500",Nov 28,,20,0
"2015-11-17T21:41:57-0500,2015-11-17T21:41:57-0500,2015-11-28T15:38:26-0500",5320883774, (brooklyn),800,medical students or resident,,,,/brk/roo/5320883774.html,0,"2015-11-17T21:41:57-0500,2015-11-17T21:41:57-0500,2015-11-28T15:38:26-0500",Nov 28,,1,0
"2015-11-28T15:43:34-0500,2015-11-28T15:43:34-0500",5335891022, (North Williamsburg/Greenpoint),2200,LOCATION Location Location!!!large/WD/greenroof/furnished,-73.9498,,40.7272,/brk/roo/5335891022.html,8,"2015-11-28T15:43:34-0500,2015-11-28T15:43:34-0500",Nov 28,,48,0
"2015-11-11T14:30:11-0500,2015-11-11T14:30:11-0500,2015-11-28T23:31:44-0500",5311155969, (Crown Heights),950,Bergen Street @ Albany Avenuew,-73.9367,,40.67,/brk/roo/5311155969.html,16,"2015-11-11T14:30:11-0500,2015-11-11T14:30:11-0500,2015-11-28T23:31:44-0500",Nov 28,,16,0
"2015-11-28T15:33:13-0500,2015-11-28T15:33:13-0500",5335874074, (310 Tompkins ave),875,Beautiful New 4BR/2BA private Roof access steps to Bedford G train,-73.944683,,40.687218,/brk/roo/5335874074.html,15,"2015-11-28T15:33:13-0500,2015-11-28T15:33:13-0500",Nov 28,,45,0
"2015-11-16T22:20:11-0500,2015-11-16T22:20:11-0500,2015-11-28T15:42:23-0500",5319417940, (Crown Heights/ Eastern Parkway),900,1 private br in 3 br. Crown Heights (2 and 5 train at the corner)),-73.95303,,40.668498,/brk/roo/5319417940.html,6,"2015-11-16T22:20:11-0500,2015-11-16T22:20:11-0500,2015-11-28T15:42:23-0500",Nov 28,,18,0
"2015-11-28T15:35:21-0500,2015-11-28T15:35:21-0500",5335877648, (Bushwick / Ridgewood),900,Rooms available--Brand new--Sunny & Spacious--Jefferson L--Laundry,-73.916064,,40.709213,/brk/roo/5335877648.html,13,"2015-11-28T15:35:21-0500,2015-11-28T15:35:21-0500",Nov 28,,23,0
"2015-11-16T22:26:22-0500,2015-11-16T22:26:22-0500,2015-11-28T15:40:41-0500",5319424048, (Crown Heights/ Eastern Parkway),900,Lovely 1 br in a 3 br apt. Crown Heights (2 and 5 train at the corner),-73.95273,,40.668449,/brk/roo/5319424048.html,6,"2015-11-16T22:26:22-0500,2015-11-16T22:26:22-0500,2015-11-28T15:40:41-0500",Nov 28,,18,0
"2015-11-28T15:16:06-0500,2015-11-28T15:16:06-0500",5335845386, (midwood),,big suuny roons kgs hwy area,-73.9743,,40.5979,/brk/roo/5335845386.html,0,"2015-11-28T15:16:06-0500,2015-11-28T15:16:06-0500",Nov 28,,3,0
"2015-11-22T20:47:43-0500,2015-11-22T20:47:43-0500,2015-11-28T19:53:03-0500",5328103492, (Crown Heights),900,PRIVATE ROOM & WiFi,,,,/brk/roo/5328103492.html,12,"2015-11-22T20:47:43-0500,2015-11-22T20:47:43-0500,2015-11-28T19:53:03-0500",Nov 28,,28,0
"2015-11-28T19:49:45-0500,2015-11-28T19:49:45-0500",5336225090, (Crown Heights/ Prospect Heights),950,Rooms available in Prospect Heights area in a 4 Bedroom 3 Full Bath,-73.953094,,40.674064,/brk/roo/5336225090.html,24,"2015-11-28T19:49:45-0500,2015-11-28T19:49:45-0500",Nov 28,,25,0
"2015-11-19T11:08:47-0500,2015-11-19T11:08:47-0500,2015-11-28T19:47:17-0500",5322899192, (Weirfield),777,"Gut Renovated LUXURY building, Friendly and chill roommate :)",-73.914642,,40.687507,/brk/roo/5322899192.html,5,"2015-11-19T11:08:47-0500,2015-11-19T11:08:47-0500,2015-11-28T19:47:17-0500",Nov 28,,63,0
"2015-11-28T19:48:26-0500,2015-11-28T19:48:26-0500",5336223626, (Crown Heights/ Prospect Heights),1000,Rooms available in Prospect Heights area in a 4 Bedroom 3 Full Bath,-73.95318,,40.673543,/brk/roo/5336223626.html,24,"2015-11-28T19:48:26-0500,2015-11-28T19:48:26-0500",Nov 28,,25,0
"2015-11-28T19:41:39-0500,2015-11-28T19:41:39-0500",5336216199, (Crown Heights/ Prospect Heights),1000,Rooms available in Prospect Heights area in a 4 Bedroom 3 Full Bath,-73.952923,,40.673999,/brk/roo/5336216199.html,24,"2015-11-28T19:41:39-0500,2015-11-28T19:41:39-0500",Nov 28,,25,0
"2015-11-28T18:16:05-0500,2015-11-28T18:16:05-0500",5336115476, (brooklyn),800,Contact me if you need a room in Brooklyn,-73.9968,980,40.6016,/brk/roo/5336115476.html,0,"2015-11-28T18:16:05-0500,2015-11-28T18:16:05-0500",Nov 28,,12,0
"2015-11-19T11:20:40-0500,2015-11-19T11:20:40-0500,2015-11-28T19:50:35-0500",5322918707, (Weirfield),776,SEEKING ROOMMATE#@~ for this 12/1! Roof Deck + Laundry + More!,-73.914642,,40.687507,/brk/roo/5322918707.html,5,"2015-11-19T11:20:40-0500,2015-11-19T11:20:40-0500,2015-11-28T19:50:35-0500",Nov 28,,62,0
"2015-11-28T19:57:55-0500,2015-11-28T19:57:55-0500",5336233886, (Crown Heights/ Prospect Heights),950,Rooms available in Prospect Heights area in a 4 Bedroom 3 Full Bath,-73.952923,,40.674194,/brk/roo/5336233886.html,22,"2015-11-28T19:57:55-0500,2015-11-28T19:57:55-0500",Nov 28,,25,0
"2015-11-22T21:00:10-0500,2015-11-22T21:00:10-0500,2015-11-28T18:11:59-0500",5328116911, (Bushwick),900,Near Northern Light Record SHOP,-73.9274,,40.6907,/brk/roo/5328116911.html,19,"2015-11-22T21:00:10-0500,2015-11-22T21:00:10-0500,2015-11-28T18:11:59-0500",Nov 28,,12,0
"2015-11-10T02:18:46-0500,2015-11-10T02:18:46-0500,2015-11-28T18:12:40-0500",5308788019, (BUSHWICK),900,* * * A CLEAN SPACIOUS FURNISHED ROOM AVAILABLE FEB. 1ST * * *,-73.908797,135,40.691075,/brk/roo/5308788019.html,15,"2015-11-10T02:18:46-0500,2015-11-10T02:18:46-0500,2015-11-28T18:12:40-0500",Nov 28,,19,0
"2015-11-28T18:17:57-0500,2015-11-28T18:17:57-0500",5336117891, (WILLIAMSBURG),925,LARGE BEDROOM IN LOFT,-73.9436,165,40.7012,/brk/roo/5336117891.html,3,"2015-11-28T18:17:57-0500,2015-11-28T18:17:57-0500",Nov 28,,6,0
"2015-11-28T18:19:10-0500,2015-11-28T18:19:10-0500",5336119427," (Brooklyn, Bed-Stuy)",900,BEDSTUY 17X12 ROOM FOR 1 IN A 3 BEDROOM APT NEAR J TRAIN,-73.91785,,40.686233,/brk/roo/5336119427.html,10,"2015-11-28T18:19:10-0500,2015-11-28T18:19:10-0500",Nov 28,,1,0
"2015-11-28T18:22:38-0500,2015-11-28T18:22:38-0500",5336123994, (Crown Heights),995,triplex. bedford and saint marks avenue,-73.9496,,40.6794,/brk/roo/5336123994.html,15,"2015-11-28T18:22:38-0500,2015-11-28T18:22:38-0500",Nov 28,,27,0
"2015-11-28T18:10:55-0500,2015-11-28T18:10:55-0500,2015-11-28T18:16:09-0500",5336108879,,640,Cozy 6 BDRM/ 2 BATH in BedStuy,-73.9211,,40.6784,/brk/roo/5336108879.html,6,"2015-11-28T18:10:55-0500,2015-11-28T18:10:55-0500,2015-11-28T18:16:09-0500",Nov 28,,22,0
"2015-11-06T15:17:11-0500,2015-11-06T15:17:11-0500,2015-11-28T18:18:28-0500",5303605144, (Flatbush),800,Full sized room for someone that can be creative with space,-73.94937,,40.648923,/brk/roo/5303605144.html,9,"2015-11-06T15:17:11-0500,2015-11-06T15:17:11-0500,2015-11-28T18:18:28-0500",Nov 28,,10,0
"2015-11-28T23:58:52-0500,2015-11-28T23:58:52-0500",5336441715,,,"Room availale for 2 months Jan/Feb - $2,000",-73.930594,,40.703473,/brk/roo/5336441715.html,8,"2015-11-28T23:58:52-0500,2015-11-28T23:58:52-0500",Nov 28,,10,0
"2015-11-29T00:06:50-0500,2015-11-29T00:06:50-0500",5336446799, (BED-STUY),725,THIS IS A TOTAL STEAL!! 4 ROOMS!! UTILITIES INCLUDED!!,-73.908029,,40.679866,/brk/roo/5336446799.html,12,"2015-11-29T00:06:50-0500,2015-11-29T00:06:50-0500",Nov 29,,5,0
"2015-11-29T00:08:22-0500,2015-11-29T00:08:22-0500",5336447797, (BED-STUY),800,BRAND NEW // BE THE FIRST TO LIVE HERE // 4 ROOMS IN A 4 BED LEFT,-73.941916,,40.687881,/brk/roo/5336447797.html,14,"2015-11-29T00:08:22-0500,2015-11-29T00:08:22-0500",Nov 29,,7,0
"2015-11-29T00:08:45-0500,2015-11-29T00:08:45-0500,2015-11-29T00:08:46-0500",5336448059, (BUSHWICK),1000,2 HUGE ROOMS // TAKE YOUR PICK // NO FEE,-73.9274,,40.6907,/brk/roo/5336448059.html,9,"2015-11-29T00:08:45-0500,2015-11-29T00:08:45-0500,2015-11-29T00:08:46-0500",Nov 29,,6,0
"2015-11-29T00:11:51-0500,2015-11-29T00:11:51-0500",5336449951, (BUSHWICK),1000,stunning building // six rooms to fill // come take your pick,-73.916824,,40.688747,/brk/roo/5336449951.html,19,"2015-11-29T00:11:51-0500,2015-11-29T00:11:51-0500",Nov 29,,6,0
"2015-11-19T16:15:04-0500,2015-11-19T16:15:04-0500,2015-11-28T17:35:26-0500",5323402205, (J train at halsey - Bedstuy),875,HUGE rom available DEC 1 great for student/foreign/traveler,,,,/brk/roo/5323402205.html,7,"2015-11-19T16:15:04-0500,2015-11-19T16:15:04-0500,2015-11-28T17:35:26-0500",Nov 28,,37,0
"2015-11-15T23:02:57-0500,2015-11-15T23:02:57-0500,2015-11-28T17:35:44-0500",5317829838,,,å¸ƒç¢Œå€« 13å¤§é“ 63è¡— å¤§å–®æˆ¿,-73.996,,40.6336,/brk/roo/5317829838.html,0,"2015-11-15T23:02:57-0500,2015-11-15T23:02:57-0500,2015-11-28T17:35:44-0500",Nov 28,,3,0
"2015-11-28T17:08:08-0500,2015-11-28T17:08:08-0500",5336023033, (Greenpoint),1299,"Large Roof Deck!! W/D, Central A/C, NO FEE!!",,,,/brk/roo/5336023033.html,13,"2015-11-28T17:08:08-0500,2015-11-28T17:08:08-0500",Nov 28,,33,0
"2015-11-29T00:06:29-0500,2015-11-29T00:06:29-0500",5336446561, (BED-STUY),900,4 ROOMS READY FOR YOU TO CHOOSE FROM // COME LOOK TODAY,-73.940927,,40.694072,/brk/roo/5336446561.html,14,"2015-11-29T00:06:29-0500,2015-11-29T00:06:29-0500",Nov 29,,6,0
"2015-11-28T17:23:46-0500,2015-11-28T17:23:46-0500",5336045476, (WILLIAMSBURG-BEDSTUY),950,( BRAND NEW ROOM FOR RENT ),-73.9436,,40.7012,/brk/roo/5336045476.html,4,"2015-11-28T17:23:46-0500,2015-11-28T17:23:46-0500",Nov 28,,4,0
"2015-11-15T23:12:33-0500,2015-11-15T23:12:33-0500,2015-11-28T17:38:51-0500",5317837545,,,"$600å¥½åŒº,å…¨åŒ…Nice Room for Rent $600(dyker heihgts br",-73.996,,40.6336,/brk/roo/5317837545.html,0,"2015-11-15T23:12:33-0500,2015-11-15T23:12:33-0500,2015-11-28T17:38:51-0500",Nov 28,,3,0
"2015-11-28T15:41:46-0500,2015-11-28T15:41:46-0500",5335888121, (Bushwick / Ridgewood),900,Rooms available--Brand new--Sunny & Spacious--Jefferson L--Laundry,-73.916064,,40.709213,/brk/roo/5335888121.html,12,"2015-11-28T15:41:46-0500,2015-11-28T15:41:46-0500",Nov 28,,23,0
"2015-11-28T15:48:57-0500,2015-11-28T15:48:57-0500",5335899649, (Bed Stuy),850,Sunny Room Off the Myrtle G!,,,,/brk/roo/5335899649.html,6,"2015-11-28T15:48:57-0500,2015-11-28T15:48:57-0500",Nov 28,,5,0
"2015-11-28T15:52:41-0500,2015-11-28T15:52:41-0500",5335905617, (Bed Stuy),800,Still one room for rent in this gorgeous 5bdrm share,-73.915973,,40.689896,/brk/roo/5335905617.html,7,"2015-11-28T15:52:41-0500,2015-11-28T15:52:41-0500",Nov 28,,16,0
"2015-11-28T15:52:55-0500,2015-11-28T15:52:55-0500",5335906031, (Crown Heights),800,Seeking last roomies ASAP!,-73.950334,,40.671638,/brk/roo/5335906031.html,10,"2015-11-28T15:52:55-0500,2015-11-28T15:52:55-0500",Nov 28,,17,0
"2015-11-28T15:46:21-0500,2015-11-28T15:46:21-0500",5335895455, (Bushwick/Ridgewood),900,"BRAND new, beautifully renovated, Jefferson L, Laundry",-73.916064,,40.709213,/brk/roo/5335895455.html,11,"2015-11-28T15:46:21-0500,2015-11-28T15:46:21-0500",Nov 28,,22,0
"2015-11-28T15:49:02-0500,2015-11-28T15:49:02-0500",5335899765, (Crown Heights),1100,Amazing deal on giant BK basement space for ASAP move in!,-73.950334,,40.671638,/brk/roo/5335899765.html,8,"2015-11-28T15:49:02-0500,2015-11-28T15:49:02-0500",Nov 28,,17,0
"2015-11-10T14:24:01-0500,2015-11-10T14:24:01-0500,2015-11-28T16:10:19-0500",5309550003, (Bedstuy),640,Tired Of Looking? Need To Move Now! I Have Your Keys!,,,,/brk/roo/5309550003.html,17,"2015-11-10T14:24:01-0500,2015-11-10T14:24:01-0500,2015-11-28T16:10:19-0500",Nov 28,,11,0
"2015-11-19T11:15:28-0500,2015-11-19T11:15:28-0500,2015-11-28T19:53:46-0500",5322910270, (Bushwick),776,"Find all amenities here+)), & an awesome roommate",-73.914642,,40.687507,/brk/roo/5322910270.html,4,"2015-11-19T11:15:28-0500,2015-11-19T11:15:28-0500,2015-11-28T19:53:46-0500",Nov 28,,62,0
"2015-11-22T20:50:07-0500,2015-11-22T20:50:07-0500,2015-11-28T19:53:47-0500",5328106108, (Bedford Stuyvesant),900,MEDIUM PRIVATE ROOM w/WiFi,,,,/brk/roo/5328106108.html,12,"2015-11-22T20:50:07-0500,2015-11-22T20:50:07-0500,2015-11-28T19:53:47-0500",Nov 28,,30,0
"2015-11-28T19:54:42-0500,2015-11-28T19:54:42-0500,2015-11-28T19:55:38-0500",5336230475, (Bushwick),900,Huge room w/ big closet. All utilities + Internet included. No fee.,,,,/brk/roo/5336230475.html,3,"2015-11-28T19:54:42-0500,2015-11-28T19:54:42-0500,2015-11-28T19:55:38-0500",Nov 28,,5,0
"2015-11-28T15:55:02-0500,2015-11-28T15:55:02-0500",5335909482," (Brooklyn, NY)",800,room for rent,,,,/brk/roo/5335909482.html,3,"2015-11-28T15:55:02-0500,2015-11-28T15:55:02-0500",Nov 28,,10,0
"2015-11-28T19:58:34-0500,2015-11-28T19:58:34-0500",5336234589,,,$550 I am Russian girl looking for roommate to share apartment,-74.003391,,40.604439,/brk/roo/5336234589.html,0,"2015-11-28T19:58:34-0500,2015-11-28T19:58:34-0500",Nov 28,,1,0
"2015-11-23T05:06:02-0500,2015-11-23T05:06:02-0500,2015-11-28T19:54:14-0500",5328391571, (Bedford Stuyvesant),900,PRIVATE ROOM w/WiFi,,,,/brk/roo/5328391571.html,12,"2015-11-23T05:06:02-0500,2015-11-23T05:06:02-0500,2015-11-28T19:54:14-0500",Nov 28,,30,0
"2015-11-19T11:16:51-0500,2015-11-19T11:16:51-0500,2015-11-28T19:56:34-0500",5322912520, (Weirfield),776,NYU masters student seeking (*(* like minded roommates,,,,/brk/roo/5322912520.html,0,"2015-11-19T11:16:51-0500,2015-11-19T11:16:51-0500,2015-11-28T19:56:34-0500",Nov 28,,62,0
"2015-11-28T18:09:49-0500,2015-11-28T18:09:49-0500,2015-11-28T18:15:08-0500",5336107485,,640,Cozy 6 BDRM/ 2 BATH in BedStuy,-73.9211,,40.6784,/brk/roo/5336107485.html,6,"2015-11-28T18:09:49-0500,2015-11-28T18:09:49-0500,2015-11-28T18:15:08-0500",Nov 28,,22,0
"2015-11-21T13:00:10-0500,2015-11-21T13:00:10-0500,2015-11-28T19:57:49-0500",5326112523, (HALSEY J),775,SPECTACULAR room available in a 1 bR - LAST ONE -- NO FEE,-73.923396,,40.686345,/brk/roo/5326112523.html,10,"2015-11-21T13:00:10-0500,2015-11-21T13:00:10-0500,2015-11-28T19:57:49-0500",Nov 28,,15,0
"2015-11-22T21:45:04-0500,2015-11-22T21:45:04-0500,2015-11-28T19:58:54-0500",5328163281, (Ridgewood),800,Room for medical student near Wyckoff Heights Medical Center,-73.905994,,40.705636,/brk/roo/5328163281.html,0,"2015-11-22T21:45:04-0500,2015-11-22T21:45:04-0500,2015-11-28T19:58:54-0500",Nov 28,,3,0
"2015-11-17T07:40:11-0500,2015-11-17T07:40:11-0500,2015-11-28T19:59:08-0500",5319673160, (GATES J),775,Gorgeous ROOMS for Rent -- Jefferson Ave - Large Rooms,-73.923396,,40.686345,/brk/roo/5319673160.html,6,"2015-11-17T07:40:11-0500,2015-11-17T07:40:11-0500,2015-11-28T19:59:08-0500",Nov 28,,24,0
"2015-11-28T18:26:00-0500,2015-11-28T18:26:00-0500",5336128281," (Brooklyn, Bed Stuy)",900,17X12 ROOM WAITING NEAR J TRAIN IN BED STUY FOR 1 MORE ROOM MATE,-73.932378,,40.684565,/brk/roo/5336128281.html,10,"2015-11-28T18:26:00-0500,2015-11-28T18:26:00-0500",Nov 28,,1,0
"2015-11-28T18:14:10-0500,2015-11-28T18:14:10-0500",5336113042,,640,Cozy 6 BDRM/ 2 BATH in BedStuy,-73.9211,,40.6784,/brk/roo/5336113042.html,6,"2015-11-28T18:14:10-0500,2015-11-28T18:14:10-0500",Nov 28,,22,0
"2015-11-23T16:09:21-0500,2015-11-23T16:09:21-0500,2015-11-28T18:23:01-0500",5329294171, (bedstuy williamsburg border),875,Condo like room for rent,,,,/brk/roo/5329294171.html,9,"2015-11-23T16:09:21-0500,2015-11-23T16:09:21-0500,2015-11-28T18:23:01-0500",Nov 28,,8,0
"2015-11-28T18:12:46-0500,2015-11-28T18:12:46-0500,2015-11-28T18:15:42-0500",5336111248,,640,Cozy 6 BDRM/ 2 BATH in BedStuy,-73.9211,,40.6784,/brk/roo/5336111248.html,6,"2015-11-28T18:12:46-0500,2015-11-28T18:12:46-0500,2015-11-28T18:15:42-0500",Nov 28,,22,0
"2015-11-26T18:10:02-0500,2015-11-26T18:10:02-0500,2015-11-28T18:23:12-0500",5333396009, (bedstuy bushwick Brooklyn),850,"One roommate needed, Gym in the building, Outdoor space, much more",,135,,/brk/roo/5333396009.html,7,"2015-11-26T18:10:02-0500,2015-11-26T18:10:02-0500,2015-11-28T18:23:12-0500",Nov 28,,15,0
"2015-11-25T17:44:55-0500,2015-11-25T17:44:55-0500,2015-11-28T18:24:10-0500",5332395000, (bedstuy williamsburg border),795,- Roommate Wanted - Bedrooms For Rent,,130,,/brk/roo/5332395000.html,7,"2015-11-25T17:44:55-0500,2015-11-25T17:44:55-0500,2015-11-28T18:24:10-0500",Nov 28,,9,0
"2015-11-29T00:19:44-0500,2015-11-29T00:19:44-0500",5336454832, (BUSHWICK),950,coffee shop right down stairs // come look today // move in tomorrow,-73.916824,,40.688747,/brk/roo/5336454832.html,17,"2015-11-29T00:19:44-0500,2015-11-29T00:19:44-0500",Nov 29,,6,0
"2015-11-23T16:47:54-0500,2015-11-23T16:47:54-0500,2015-11-28T18:23:23-0500",5329360045, (bedstuy williamsburg border),825,"Peaceful Room in Brooklyn, Apartment near williamsburg â˜º",,125,,/brk/roo/5329360045.html,9,"2015-11-23T16:47:54-0500,2015-11-23T16:47:54-0500,2015-11-28T18:23:23-0500",Nov 28,,8,0
"2015-11-29T00:17:13-0500,2015-11-29T00:17:13-0500",5336453240, (BUSHWICK),1000,huge rooms // modern // close to the train // awesome area,-73.9274,,40.6907,/brk/roo/5336453240.html,9,"2015-11-29T00:17:13-0500,2015-11-29T00:17:13-0500",Nov 29,,6,0
"2015-11-29T00:20:21-0500,2015-11-29T00:20:21-0500",5336455190, (BED-STUY),800,three rooms // brand new // outdoor space // close to all trains,-73.908156,,40.675674,/brk/roo/5336455190.html,12,"2015-11-29T00:20:21-0500,2015-11-29T00:20:21-0500",Nov 29,,6,0
